{"15008000": {"latitude": 56.025815, "logitude": -130.0669823, "state": "AK", "name": "SALMON R NR HYDER AK", "timeZoneInfo": {"zoneOffset": "-09:00", "zoneAbbreviation": "AKST"}}, "15015595": {"latitude": 56.2402062, "logitude": -130.8819864, "state": "AK", "name": "UNUK R BL BLUE R NR WRANGELL AK", "timeZoneInfo": {"zoneOffset": "-09:00", "zoneAbbreviation": "AKST"}}, "15019990": {"latitude": 56.1996415, "logitude": -131.5083622, "state": "AK", "name": "TYEE LK OUTLET NR WRANGELL AK", "timeZoneInfo": {"zoneOffset": "-09:00", "zoneAbbreviation": "AKST"}}, "15022000": {"latitude": 56.2129778, "logitude": -131.6383585, "state": "AK", "name": "HARDING R NR WRANGELL AK", "timeZoneInfo": {"zoneOffset": "-09:00", "zoneAbbreviation": "AKST"}}, "15024800": {"latitude": 56.70772188, "logitude": -132.1319653, "state": "AK", "name": "STIKINE R NR WRANGELL AK", "timeZoneInfo": {"zoneOffset": "-09:00", "zoneAbbreviation": "AKST"}}, "15039900": {"latitude": 58.24856608, "logitude": -133.9834106, "state": "AK", "name": "DOROTHY LK OUTLET NR JUNEAU AK", "timeZoneInfo": {"zoneOffset": "-09:00", "zoneAbbreviation": "AKST"}}, "15040000": {"latitude": 58.227453, "logitude": -134.0420256, "state": "AK", "name": "DOROTHY C NR JUNEAU AK", "timeZoneInfo": {"zoneOffset": "-09:00", "zoneAbbreviation": "AKST"}}, "15041200": {"latitude": 58.53829828, "logitude": -133.7017432, "state": "AK", "name": "TAKU R NR JUNEAU AK", "timeZoneInfo": {"zoneOffset": "-09:00", "zoneAbbreviation": "AKST"}}, "15049900": {"latitude": 58.3068952, "logitude": -134.388436, "state": "AK", "name": "GOLD C NR JUNEAU AK", "timeZoneInfo": {"zoneOffset": "-09:00", "zoneAbbreviation": "AKST"}}, "15050000": {"latitude": 58.30661738, "logitude": -134.403159, "state": "AK", "name": "GOLD C AT JUNEAU AK", "timeZoneInfo": {"zoneOffset": "-09:00", "zoneAbbreviation": "AKST"}}, "15051010": {"latitude": 58.33217378, "logitude": -134.4676074, "state": "AK", "name": "SALMON C NR JUNEAU AK", "timeZoneInfo": {"zoneOffset": "-09:00", "zoneAbbreviation": "AKST"}}, "15052000": {"latitude": 58.3913429, "logitude": -134.4226062, "state": "AK", "name": "LEMON C NR JUNEAU AK", "timeZoneInfo": {"zoneOffset": "-09:00", "zoneAbbreviation": "AKST"}}, "15052475": {"latitude": 58.3660622, "logitude": -134.5778918, "state": "AK", "name": "JORDAN C BL EGAN DR NR AUKE BAY AK", "timeZoneInfo": {"zoneOffset": "-09:00", "zoneAbbreviation": "AKST"}}, "15052495": {"latitude": 58.4232871, "logitude": -134.5253896, "state": "AK", "name": "NUGGET C AB DIV NR AUKE BAY AK", "timeZoneInfo": {"zoneOffset": "-09:00", "zoneAbbreviation": "AKST"}}, "15052500": {"latitude": 58.4293972, "logitude": -134.5745592, "state": "AK", "name": "MENDENHALL R NR AUKE BAY AK", "timeZoneInfo": {"zoneOffset": "-09:00", "zoneAbbreviation": "AKST"}}, "15052800": {"latitude": 58.397729, "logitude": -134.6112276, "state": "AK", "name": "MONTANA C NR AUKE BAY AK", "timeZoneInfo": {"zoneOffset": "-09:00", "zoneAbbreviation": "AKST"}}, "15053200": {"latitude": 58.3749514, "logitude": -134.579003, "state": "AK", "name": "DUCK C BL NANCY ST NR AUKE BAY AK", "timeZoneInfo": {"zoneOffset": "-09:00", "zoneAbbreviation": "AKST"}}, "15055500": {"latitude": 58.85162387, "logitude": -134.710401, "state": "AK", "name": "ANTLER R BL ANTLER LK NR AUKE BAY AK", "timeZoneInfo": {"zoneOffset": "-09:00", "zoneAbbreviation": "AKST"}}, "15056030": {"latitude": 59.0049486, "logitude": -135.185708, "state": "AK", "name": "KAKUHAN C NR HAINES AK", "timeZoneInfo": {"zoneOffset": "-09:00", "zoneAbbreviation": "AKST"}}, "15056095": {"latitude": 59.5266173, "logitude": -135.1790528, "state": "AK", "name": "GOAT LK OUTLET NR SKAGWAY AK", "timeZoneInfo": {"zoneOffset": "-09:00", "zoneAbbreviation": "AKST"}}, "15056210": {"latitude": 59.5116183, "logitude": -135.3462752, "state": "AK", "name": "TAIYA R NR SKAGWAY AK", "timeZoneInfo": {"zoneOffset": "-09:00", "zoneAbbreviation": "AKST"}}, "15056280": {"latitude": 59.4238424, "logitude": -135.6626638, "state": "AK", "name": "UPPER CHILKOOT LK OUTLET NR HAINES AK", "timeZoneInfo": {"zoneOffset": "-09:00", "zoneAbbreviation": "AKST"}}, "15056500": {"latitude": 59.41494719, "logitude": -135.9310198, "state": "AK", "name": "CHILKAT R NR KLUKWAN AK", "timeZoneInfo": {"zoneOffset": "-09:00", "zoneAbbreviation": "AKST"}}, "15057580": {"latitude": 58.4432745, "logitude": -135.6020974, "state": "AK", "name": "KAHTAHEENA R AB UPPER FALLS NR GUSTAVUS AK", "timeZoneInfo": {"zoneOffset": "-09:00", "zoneAbbreviation": "AKST"}}, "15057590": {"latitude": 58.42299689, "logitude": -135.5998738, "state": "AK", "name": "KAHTAHEENA R NR GUSTAVUS AK", "timeZoneInfo": {"zoneOffset": "-09:00", "zoneAbbreviation": "AKST"}}, "15057596": {"latitude": 58.44465728, "logitude": -135.7418302, "state": "AK", "name": "SALMON R AT GUSTAVUS AK", "timeZoneInfo": {"zoneOffset": "-09:00", "zoneAbbreviation": "AKST"}}, "15058700": {"latitude": 55.3424302, "logitude": -131.7005736, "state": "AK", "name": "GOVERNMENT C NR KETCHIKAN AK", "timeZoneInfo": {"zoneOffset": "-09:00", "zoneAbbreviation": "AKST"}}, "15068040": {"latitude": 55.51909057, "logitude": -131.5244658, "state": "AK", "name": "LEASK CREEK AT SHELTER COVE NR KETCHIKAN AK", "timeZoneInfo": {"zoneOffset": "-09:00", "zoneAbbreviation": "AKST"}}, "15072000": {"latitude": 55.3916038, "logitude": -131.1955833, "state": "AK", "name": "FISH C NR KETCHIKAN AK", "timeZoneInfo": {"zoneOffset": "-09:00", "zoneAbbreviation": "AKST"}}, "15081495": {"latitude": 55.7324084, "logitude": -132.9688959, "state": "AK", "name": "NF STANEY C NR KLAWOCK AK", "timeZoneInfo": {"zoneOffset": "-09:00", "zoneAbbreviation": "AKST"}}, "15081497": {"latitude": 55.8010287, "logitude": -133.1103222, "state": "AK", "name": "STANEY C NR KLAWOCK AK", "timeZoneInfo": {"zoneOffset": "-09:00", "zoneAbbreviation": "AKST"}}, "15081610": {"latitude": 55.5346476, "logitude": -132.9563845, "state": "AK", "name": "THREEMILE C NR KLAWOCK AK", "timeZoneInfo": {"zoneOffset": "-09:00", "zoneAbbreviation": "AKST"}}, "15081614": {"latitude": 55.55687287, "logitude": -133.0186197, "state": "AK", "name": "HALFMILE C AB DIVERSION NR KLAWOCK AK", "timeZoneInfo": {"zoneOffset": "-09:00", "zoneAbbreviation": "AKST"}}, "15081995": {"latitude": 55.2177027, "logitude": -132.5822164, "state": "AK", "name": "REYNOLDS C BL LK MELLEN NR HYDABURG AK", "timeZoneInfo": {"zoneOffset": "-09:00", "zoneAbbreviation": "AKST"}}, "15085100": {"latitude": 55.3951944, "logitude": -132.4086268, "state": "AK", "name": "OLD TOM C NR KASAAN AK", "timeZoneInfo": {"zoneOffset": "-09:00", "zoneAbbreviation": "AKST"}}, "15085800": {"latitude": 55.490199, "logitude": -132.676926, "state": "AK", "name": "MAYBESO C AT HOLLIS AK", "timeZoneInfo": {"zoneOffset": "-09:00", "zoneAbbreviation": "AKST"}}, "15085900": {"latitude": 55.5304722, "logitude": -132.5972134, "state": "AK", "name": "WOLF LK OUTLET NR HOLLIS AK", "timeZoneInfo": {"zoneOffset": "-09:00", "zoneAbbreviation": "AKST"}}, "15086225": {"latitude": 55.9086111, "logitude": -132.9308333, "state": "AK", "name": "HATCHERY C AT FOREST SVC RD 23 NR COFFMAN COVE AK", "timeZoneInfo": {"zoneOffset": "-09:00", "zoneAbbreviation": "AKST"}}, "15086960": {"latitude": 56.4118757, "logitude": -132.4933566, "state": "AK", "name": "SUNRISE LK OUTLET NR WRANGELL AK", "timeZoneInfo": {"zoneOffset": "-09:00", "zoneAbbreviation": "AKST"}}, "15087080": {"latitude": 56.2854872, "logitude": -132.1325175, "state": "AK", "name": "UPPER EARL WEST C NR WRANGELL AK", "timeZoneInfo": {"zoneOffset": "-09:00", "zoneAbbreviation": "AKST"}}, "15087300": {"latitude": 56.6818693, "logitude": -132.9239425, "state": "AK", "name": "FALLS C NR PETERSBURG AK", "timeZoneInfo": {"zoneOffset": "-09:00", "zoneAbbreviation": "AKST"}}, "15087500": {"latitude": 56.7935403, "logitude": -132.8747734, "state": "AK", "name": "EF HOBO C NR PETERSBURG AK", "timeZoneInfo": {"zoneOffset": "-09:00", "zoneAbbreviation": "AKST"}}, "15087565": {"latitude": 56.97902778, "logitude": -133.9300278, "state": "AK", "name": "GUNNUK C NR KAKE AK", "timeZoneInfo": {"zoneOffset": "-09:00", "zoneAbbreviation": "AKST"}}, "15087570": {"latitude": 56.87216067, "logitude": -133.6767336, "state": "AK", "name": "HAMILTON C NR KAKE AK", "timeZoneInfo": {"zoneOffset": "-09:00", "zoneAbbreviation": "AKST"}}, "15087618": {"latitude": 57.12491678, "logitude": -135.3334277, "state": "AK", "name": "STARRIGAVAN C AT UPPER BRIDGE NR SITKA AK", "timeZoneInfo": {"zoneOffset": "-09:00", "zoneAbbreviation": "AKST"}}, "15087690": {"latitude": 57.06658247, "logitude": -135.2967628, "state": "AK", "name": "INDIAN R NR SITKA AK", "timeZoneInfo": {"zoneOffset": "-09:00", "zoneAbbreviation": "AKST"}}, "15087700": {"latitude": 57.05297119, "logitude": -135.3162085, "state": "AK", "name": "INDIAN R AT SITKA AK", "timeZoneInfo": {"zoneOffset": "-09:00", "zoneAbbreviation": "AKST"}}, "15087730": {"latitude": 57.053249, "logitude": -135.3195419, "state": "AK", "name": "INDIAN R DIV TO SJC AT SAWMILL C RD AT SITKA AK", "timeZoneInfo": {"zoneOffset": "-09:00", "zoneAbbreviation": "AKST"}}, "15087735": {"latitude": 57.0510267, "logitude": -135.3214865, "state": "AK", "name": "INDIAN R DIV RETURN FLOW FROM SJC AT SITKA AK", "timeZoneInfo": {"zoneOffset": "-09:00", "zoneAbbreviation": "AKST"}}, "15088000": {"latitude": 57.0510267, "logitude": -135.2295402, "state": "AK", "name": "SAWMILL C NR SITKA AK", "timeZoneInfo": {"zoneOffset": "-09:00", "zoneAbbreviation": "AKST"}}, "15088200": {"latitude": 57.01880376, "logitude": -135.1642635, "state": "AK", "name": "SILVER BAY TR AT BEAR COVE NR SITKA AK", "timeZoneInfo": {"zoneOffset": "-09:00", "zoneAbbreviation": "AKST"}}, "15099900": {"latitude": 57.1310482, "logitude": -134.8875862, "state": "AK", "name": "TAKATZ C AT TAKATZ LAKE OUTLET NR BARANOF AK", "timeZoneInfo": {"zoneOffset": "-09:00", "zoneAbbreviation": "AKST"}}, "15100000": {"latitude": 57.1427162, "logitude": -134.8656418, "state": "AK", "name": "TAKATZ C NR BARANOF AK", "timeZoneInfo": {"zoneOffset": "-09:00", "zoneAbbreviation": "AKST"}}, "15101490": {"latitude": 58.08299837, "logitude": -134.6334448, "state": "AK", "name": "GREENS C AT GREENS CREEK MINE NR JUNEAU AK", "timeZoneInfo": {"zoneOffset": "-09:00", "zoneAbbreviation": "AKST"}}, "15102200": {"latitude": 57.44744387, "logitude": -134.4614756, "state": "AK", "name": "FAVORITE C NR ANGOON AK", "timeZoneInfo": {"zoneOffset": "-09:00", "zoneAbbreviation": "AKST"}}, "15106920": {"latitude": 57.662435, "logitude": -135.1867819, "state": "AK", "name": "KADASHAN R AB HOOK C NR TENAKEE AK", "timeZoneInfo": {"zoneOffset": "-09:00", "zoneAbbreviation": "AKST"}}, "15106970": {"latitude": 57.69215748, "logitude": -135.2034467, "state": "AK", "name": "MIDDLE BASIN C NR TENAKEE AK", "timeZoneInfo": {"zoneOffset": "-09:00", "zoneAbbreviation": "AKST"}}, "15109048": {"latitude": 58.2830018, "logitude": -134.6667836, "state": "AK", "name": "PETERSON C BL NF NR AUKE BAY AK", "timeZoneInfo": {"zoneOffset": "-09:00", "zoneAbbreviation": "AKST"}}, "15129000": {"latitude": 59.39471189, "logitude": -138.083688, "state": "AK", "name": "ALSEK R NR YAKUTAT AK", "timeZoneInfo": {"zoneOffset": "-09:00", "zoneAbbreviation": "AKST"}}, "15129120": {"latitude": 59.1928056, "logitude": -138.3339167, "state": "AK", "name": "ALSEK R AT DRY BAY NR YAKUTAT AK", "timeZoneInfo": {"zoneOffset": "-09:00", "zoneAbbreviation": "AKST"}}, "15129280": {"latitude": 59.30202778, "logitude": -139.0456944, "state": "AK", "name": "ITALIO R AB MOUTH NR YAKUTAT AK", "timeZoneInfo": {"zoneOffset": "-09:00", "zoneAbbreviation": "AKST"}}, "15129300": {"latitude": 59.4172165, "logitude": -139.019217, "state": "AK", "name": "DANGEROUS R AT HARLEQUIN LK OUTLET NR YAKUTAT AK", "timeZoneInfo": {"zoneOffset": "-09:00", "zoneAbbreviation": "AKST"}}, "15129500": {"latitude": 59.58636636, "logitude": -139.4941877, "state": "AK", "name": "SITUK R NR YAKUTAT AK", "timeZoneInfo": {"zoneOffset": "-09:00", "zoneAbbreviation": "AKST"}}, "15129510": {"latitude": 59.5702565, "logitude": -139.4400197, "state": "AK", "name": "OLD SITUK R NR YAKUTAT AK", "timeZoneInfo": {"zoneOffset": "-09:00", "zoneAbbreviation": "AKST"}}, "15129600": {"latitude": 59.52358729, "logitude": -139.7452729, "state": "AK", "name": "OPHIR C NR YAKUTAT AK", "timeZoneInfo": {"zoneOffset": "-09:00", "zoneAbbreviation": "AKST"}}, "15199300": {"latitude": 62.4311111, "logitude": -144.9675, "state": "AK", "name": "TULSONA C NR GAKONA AK", "timeZoneInfo": {"zoneOffset": "-09:00", "zoneAbbreviation": "AKST"}}, "15199500": {"latitude": 62.5906967, "logitude": -144.6488398, "state": "AK", "name": "SINONA C NR CHISTOCHINA AK", "timeZoneInfo": {"zoneOffset": "-09:00", "zoneAbbreviation": "AKST"}}, "15200280": {"latitude": 62.5203918, "logitude": -145.5330154, "state": "AK", "name": "GULKANA R AT SOURDOUGH AK", "timeZoneInfo": {"zoneOffset": "-09:00", "zoneAbbreviation": "AKST"}}, "15209700": {"latitude": 61.43372656, "logitude": -142.9426256, "state": "AK", "name": "WF KENNICOTT R AT MCCARTHY AK", "timeZoneInfo": {"zoneOffset": "-09:00", "zoneAbbreviation": "AKST"}}, "15209750": {"latitude": 61.4937294, "logitude": -142.8837439, "state": "AK", "name": "BONANZA C NR MC CARTHY AK", "timeZoneInfo": {"zoneOffset": "-09:00", "zoneAbbreviation": "AKST"}}, "15214000": {"latitude": 60.6711432, "logitude": -144.7467135, "state": "AK", "name": "COPPER R AT MILLION DOLLAR BRIDGE NR CORDOVA AK", "timeZoneInfo": {"zoneOffset": "-09:00", "zoneAbbreviation": "AKST"}}, "15215900": {"latitude": 60.5327973, "logitude": -145.3806148, "state": "AK", "name": "GLACIER R TRIB NR CORDOVA AK", "timeZoneInfo": {"zoneOffset": "-09:00", "zoneAbbreviation": "AKST"}}, "15215990": {"latitude": 60.5186253, "logitude": -145.7917173, "state": "AK", "name": "NICOLET C NR CORDOVA AK", "timeZoneInfo": {"zoneOffset": "-09:00", "zoneAbbreviation": "AKST"}}, "15215992": {"latitude": 60.52335006, "logitude": -145.7633808, "state": "AK", "name": "HENEY C AT CANYON MOUTH NR CORDOVA AK", "timeZoneInfo": {"zoneOffset": "-09:00", "zoneAbbreviation": "AKST"}}, "15216000": {"latitude": 60.58667537, "logitude": -145.620022, "state": "AK", "name": "POWER C NR CORDOVA AK", "timeZoneInfo": {"zoneOffset": "-09:00", "zoneAbbreviation": "AKST"}}, "15216003": {"latitude": 60.5575101, "logitude": -145.6308655, "state": "AK", "name": "MIDDLE ARM EYAK LK TR NR CORDOVA AK", "timeZoneInfo": {"zoneOffset": "-09:00", "zoneAbbreviation": "AKST"}}, "15216008": {"latitude": 60.5364038, "logitude": -145.716152, "state": "AK", "name": "MURCHISON C NR CORDOVA AK", "timeZoneInfo": {"zoneOffset": "-09:00", "zoneAbbreviation": "AKST"}}, "15225996": {"latitude": 61.08308748, "logitude": -146.3047938, "state": "AK", "name": "SOLOMON GULCH TAILRACE NR VALDEZ AK", "timeZoneInfo": {"zoneOffset": "-09:00", "zoneAbbreviation": "AKST"}}, "15225997": {"latitude": 61.0786427, "logitude": -146.3050704, "state": "AK", "name": "SOLOMON GULCH AT TOP OF FALLS NR VALDEZ AK", "timeZoneInfo": {"zoneOffset": "-09:00", "zoneAbbreviation": "AKST"}}, "15225998": {"latitude": 61.0825319, "logitude": -146.3059048, "state": "AK", "name": "SOLOMON GULCH BYPASS NR VALDEZ AK", "timeZoneInfo": {"zoneOffset": "-09:00", "zoneAbbreviation": "AKST"}}, "15226620": {"latitude": 61.0670833, "logitude": -145.906111, "state": "AK", "name": "LOWE R AB HORSETAIL FALLS NR VALDEZ AK", "timeZoneInfo": {"zoneOffset": "-09:00", "zoneAbbreviation": "AKST"}}, "15227090": {"latitude": 61.14888889, "logitude": -146.1715833, "state": "AK", "name": "VALDEZ GLACIER R AT VALDEZ GLACIER LK NR VALDEZ AK", "timeZoneInfo": {"zoneOffset": "-09:00", "zoneAbbreviation": "AKST"}}, "15236000": {"latitude": 60.96108947, "logitude": -148.240688, "state": "AK", "name": "HOBO C NR WHITTIER AK", "timeZoneInfo": {"zoneOffset": "-09:00", "zoneAbbreviation": "AKST"}}, "15236210": {"latitude": 60.7721972, "logitude": -148.690673, "state": "AK", "name": "WHITTIER C AT WHITTIER AK", "timeZoneInfo": {"zoneOffset": "-09:00", "zoneAbbreviation": "AKST"}}, "15236900": {"latitude": 60.36995858, "logitude": -148.8987624, "state": "AK", "name": "WOLVERINE C NR LAWING AK", "timeZoneInfo": {"zoneOffset": "-09:00", "zoneAbbreviation": "AKST"}}, "15237030": {"latitude": 60.45188889, "logitude": -148.108, "state": "AK", "name": "ESHAMY C AT ESHAMY LAKE OUTLET NR WHITTIER AK", "timeZoneInfo": {"zoneOffset": "-09:00", "zoneAbbreviation": "AKST"}}, "15237360": {"latitude": 59.8173989, "logitude": -147.885369, "state": "AK", "name": "SAN JUAN R NR SEWARD AK", "timeZoneInfo": {"zoneOffset": "-09:00", "zoneAbbreviation": "AKST"}}, "15237730": {"latitude": 60.19777389, "logitude": -149.3754835, "state": "AK", "name": "GROUSE C AT GROUSE LK OUTLET NR SEWARD AK", "timeZoneInfo": {"zoneOffset": "-09:00", "zoneAbbreviation": "AKST"}}, "15238500": {"latitude": 60.0980485, "logitude": -149.4451989, "state": "AK", "name": "LOWELL C AT SEWARD AK", "timeZoneInfo": {"zoneOffset": "-09:00", "zoneAbbreviation": "AKST"}}, "15238600": {"latitude": 60.0688812, "logitude": -149.4543636, "state": "AK", "name": "SPRUCE C NR SEWARD AK", "timeZoneInfo": {"zoneOffset": "-09:00", "zoneAbbreviation": "AKST"}}, "15238648": {"latitude": 59.6838574, "logitude": -150.7054468, "state": "AK", "name": "UPPER NUKA R NR PARK BOUNDARY NR HOMER AK", "timeZoneInfo": {"zoneOffset": "-09:00", "zoneAbbreviation": "AKST"}}, "15238820": {"latitude": 59.4799395, "logitude": -151.6471106, "state": "AK", "name": "BARABARA C NR SELDOVIA AK", "timeZoneInfo": {"zoneOffset": "-09:00", "zoneAbbreviation": "AKST"}}, "15238978": {"latitude": 59.7452409, "logitude": -150.8415645, "state": "AK", "name": "BATTLE C DIV AB BRADLEY LK NR HOMER AK", "timeZoneInfo": {"zoneOffset": "-09:00", "zoneAbbreviation": "AKST"}}, "15238982": {"latitude": 59.73801597, "logitude": -150.8990619, "state": "AK", "name": "BATTLE C BL GLACIER NR HOMER AK", "timeZoneInfo": {"zoneOffset": "-09:00", "zoneAbbreviation": "AKST"}}, "15238984": {"latitude": 59.7521805, "logitude": -150.9560085, "state": "AK", "name": "SF BATTLE C NR HOMER AK", "timeZoneInfo": {"zoneOffset": "-09:00", "zoneAbbreviation": "AKST"}}, "15238985": {"latitude": 59.7549584, "logitude": -150.9554535, "state": "AK", "name": "BATTLE C NR TIDEWATER NR HOMER AK", "timeZoneInfo": {"zoneOffset": "-09:00", "zoneAbbreviation": "AKST"}}, "15238986": {"latitude": 59.76173646, "logitude": -150.955177, "state": "AK", "name": "BATTLE C 1.0 MI AB MOUTH NR HOMER AK", "timeZoneInfo": {"zoneOffset": "-09:00", "zoneAbbreviation": "AKST"}}, "15238990": {"latitude": 59.6999688, "logitude": -150.704616, "state": "AK", "name": "UPPER BRADLEY R NR NUKA GLACIER NR HOMER AK", "timeZoneInfo": {"zoneOffset": "-09:00", "zoneAbbreviation": "AKST"}}, "15239001": {"latitude": 59.7577407, "logitude": -150.8526778, "state": "AK", "name": "BRADLEY R BL DAM NR HOMER AK", "timeZoneInfo": {"zoneOffset": "-09:00", "zoneAbbreviation": "AKST"}}, "15239050": {"latitude": 59.77774568, "logitude": -150.7562948, "state": "AK", "name": "MF BRADLEY R NR HOMER AK", "timeZoneInfo": {"zoneOffset": "-09:00", "zoneAbbreviation": "AKST"}}, "15239060": {"latitude": 59.79774138, "logitude": -150.8654632, "state": "AK", "name": "MF BRADLEY R BL NF BRADLEY R NR HOMER AK", "timeZoneInfo": {"zoneOffset": "-09:00", "zoneAbbreviation": "AKST"}}, "15239070": {"latitude": 59.80107399, "logitude": -150.8849079, "state": "AK", "name": "BRADLEY R NR TIDEWATER NR HOMER AK", "timeZoneInfo": {"zoneOffset": "-09:00", "zoneAbbreviation": "AKST"}}, "15239500": {"latitude": 59.7077277, "logitude": -151.3451837, "state": "AK", "name": "FRITZ C NR HOMER AK", "timeZoneInfo": {"zoneOffset": "-09:00", "zoneAbbreviation": "AKST"}}, "15239900": {"latitude": 59.74660897, "logitude": -151.7552124, "state": "AK", "name": "ANCHOR R NR ANCHOR POINT AK", "timeZoneInfo": {"zoneOffset": "-09:00", "zoneAbbreviation": "AKST"}}, "15241600": {"latitude": 60.04841667, "logitude": -151.6649167, "state": "AK", "name": "NINILCHIK R AT NINILCHIK AK", "timeZoneInfo": {"zoneOffset": "-09:00", "zoneAbbreviation": "AKST"}}, "15243900": {"latitude": 60.2944395, "logitude": -149.3460397, "state": "AK", "name": "SNOW R NR SEWARD AK", "timeZoneInfo": {"zoneOffset": "-09:00", "zoneAbbreviation": "AKST"}}, "15258000": {"latitude": 60.49219269, "logitude": -149.8099203, "state": "AK", "name": "KENAI R AT COOPER LANDING AK", "timeZoneInfo": {"zoneOffset": "-09:00", "zoneAbbreviation": "AKST"}}, "15261000": {"latitude": 60.4799795, "logitude": -149.882711, "state": "AK", "name": "COOPER C AT MOUTH NR COOPER LANDING AK", "timeZoneInfo": {"zoneOffset": "-09:00", "zoneAbbreviation": "AKST"}}, "15266110": {"latitude": 60.466099, "logitude": -150.60109, "state": "AK", "name": "KENAI R BL SKILAK LK OUTLET NR STERLING AK", "timeZoneInfo": {"zoneOffset": "-09:00", "zoneAbbreviation": "AKST"}}, "15266150": {"latitude": 60.4905439, "logitude": -150.6327592, "state": "AK", "name": "KENAI R BL MOUTH OF KILLEY R NR STERLING AK", "timeZoneInfo": {"zoneOffset": "-09:00", "zoneAbbreviation": "AKST"}}, "15266300": {"latitude": 60.4769289, "logitude": -151.0816675, "state": "AK", "name": "KENAI R AT SOLDOTNA AK", "timeZoneInfo": {"zoneOffset": "-09:00", "zoneAbbreviation": "AKST"}}, "15271000": {"latitude": 60.82027267, "logitude": -149.427443, "state": "AK", "name": "SIXMILE C NR HOPE AK", "timeZoneInfo": {"zoneOffset": "-09:00", "zoneAbbreviation": "AKST"}}, "15272280": {"latitude": 60.78471779, "logitude": -148.8410319, "state": "AK", "name": "PORTAGE C AT PORTAGE LK OUTLET NR WHITTIER AK", "timeZoneInfo": {"zoneOffset": "-09:00", "zoneAbbreviation": "AKST"}}, "15272380": {"latitude": 60.8974833, "logitude": -148.9241074, "state": "AK", "name": "TWENTYMILE R BL GLACIER R NR PORTAGE AK", "timeZoneInfo": {"zoneOffset": "-09:00", "zoneAbbreviation": "AKST"}}, "15272502": {"latitude": 60.9616194, "logitude": -149.1319194, "state": "AK", "name": "GLACIER C AT ALYESKA HIGHWAY AT GIRDWOOD, AK", "timeZoneInfo": {"zoneOffset": "-09:00", "zoneAbbreviation": "AKST"}}, "15273045": {"latitude": 61.08361237, "logitude": -149.8258032, "state": "AK", "name": "RABBIT C AT OLD SEWARD HWY NR ANCHORAGE AK", "timeZoneInfo": {"zoneOffset": "-09:00", "zoneAbbreviation": "AKST"}}, "15274000": {"latitude": 61.16667096, "logitude": -149.7727527, "state": "AK", "name": "SF CAMPBELL C NR ANCHORAGE AK", "timeZoneInfo": {"zoneOffset": "-09:00", "zoneAbbreviation": "AKST"}}, "15274550": {"latitude": 61.1530576, "logitude": -149.873865, "state": "AK", "name": "L CAMPBELL C AT NATHAN DR NR ANCHORAGE AK", "timeZoneInfo": {"zoneOffset": "-09:00", "zoneAbbreviation": "AKST"}}, "15274600": {"latitude": 61.1388906, "logitude": -149.9255337, "state": "AK", "name": "CAMPBELL C NR SPENARD AK", "timeZoneInfo": {"zoneOffset": "-09:00", "zoneAbbreviation": "AKST"}}, "15275100": {"latitude": 61.20472578, "logitude": -149.8974826, "state": "AK", "name": "CHESTER C AT ARCTIC BOULEVARD AT ANCHORAGE AK", "timeZoneInfo": {"zoneOffset": "-09:00", "zoneAbbreviation": "AKST"}}, "15276000": {"latitude": 61.22500619, "logitude": -149.6372008, "state": "AK", "name": "SHIP C NR ANCHORAGE AK", "timeZoneInfo": {"zoneOffset": "-09:00", "zoneAbbreviation": "AKST"}}, "15276200": {"latitude": 61.23834008, "logitude": -149.6980353, "state": "AK", "name": "SHIP C AT GLENN HWY NR ANCHORAGE AK", "timeZoneInfo": {"zoneOffset": "-09:00", "zoneAbbreviation": "AKST"}}, "15276320": {"latitude": 61.2427846, "logitude": -149.7241469, "state": "AK", "name": "SHIP C BL FISH HATCHERY NR ANCHORAGE AK", "timeZoneInfo": {"zoneOffset": "-09:00", "zoneAbbreviation": "AKST"}}, "15278000": {"latitude": 61.4102917, "logitude": -149.1244357, "state": "AK", "name": "EKLUTNA LK NR PALMER AK", "timeZoneInfo": {"zoneOffset": "-09:00", "zoneAbbreviation": "AKST"}}, "15280200": {"latitude": 61.44973908, "logitude": -149.3694387, "state": "AK", "name": "EKLUTNA R AT OLD GLENN HWY AT EKLUTNA AK", "timeZoneInfo": {"zoneOffset": "-09:00", "zoneAbbreviation": "AKST"}}, "15280999": {"latitude": 61.52338889, "logitude": -149.0418889, "state": "AK", "name": "PALMER (BODENBURG) C AT E DILLY AVE NR PALMER AK", "timeZoneInfo": {"zoneOffset": "-09:00", "zoneAbbreviation": "AKST"}}, "15281000": {"latitude": 61.5044605, "logitude": -149.032765, "state": "AK", "name": "KNIK R NR PALMER AK", "timeZoneInfo": {"zoneOffset": "-09:00", "zoneAbbreviation": "AKST"}}, "15281500": {"latitude": 61.83837366, "logitude": -147.4108033, "state": "AK", "name": "CAMP C NR SHEEP MT LODGE AK", "timeZoneInfo": {"zoneOffset": "-09:00", "zoneAbbreviation": "AKST"}}, "15283700": {"latitude": 61.68438889, "logitude": -149.0524167, "state": "AK", "name": "MOOSE C NR PALMER AK", "timeZoneInfo": {"zoneOffset": "-09:00", "zoneAbbreviation": "AKST"}}, "15284000": {"latitude": 61.6086312, "logitude": -149.0730432, "state": "AK", "name": "MATANUSKA R AT PALMER AK", "timeZoneInfo": {"zoneOffset": "-09:00", "zoneAbbreviation": "AKST"}}, "15285000": {"latitude": 61.64307278, "logitude": -149.1983305, "state": "AK", "name": "WASILLA C NR PALMER AK", "timeZoneInfo": {"zoneOffset": "-09:00", "zoneAbbreviation": "AKST"}}, "15286000": {"latitude": 61.5744617, "logitude": -149.4119428, "state": "AK", "name": "COTTONWOOD C NR WASILLA AK", "timeZoneInfo": {"zoneOffset": "-09:00", "zoneAbbreviation": "AKST"}}, "15290000": {"latitude": 61.7097433, "logitude": -149.231938, "state": "AK", "name": "L SUSITNA R NR PALMER AK", "timeZoneInfo": {"zoneOffset": "-09:00", "zoneAbbreviation": "AKST"}}, "15291000": {"latitude": 63.10343837, "logitude": -147.5180902, "state": "AK", "name": "SUSITNA R NR DENALI AK", "timeZoneInfo": {"zoneOffset": "-09:00", "zoneAbbreviation": "AKST"}}, "15291500": {"latitude": 62.6981532, "logitude": -147.5472168, "state": "AK", "name": "SUSITNA R NR CANTWELL AK", "timeZoneInfo": {"zoneOffset": "-09:00", "zoneAbbreviation": "AKST"}}, "15291700": {"latitude": 62.8233333, "logitude": -148.6047222, "state": "AK", "name": "SUSITNA R AB TSUSENA C NR CHULITNA AK", "timeZoneInfo": {"zoneOffset": "-09:00", "zoneAbbreviation": "AKST"}}, "15292000": {"latitude": 62.7672899, "logitude": -149.6933794, "state": "AK", "name": "SUSITNA R AT GOLD CREEK AK", "timeZoneInfo": {"zoneOffset": "-09:00", "zoneAbbreviation": "AKST"}}, "15292400": {"latitude": 62.55810837, "logitude": -150.23616, "state": "AK", "name": "CHULITNA R NR TALKEETNA AK", "timeZoneInfo": {"zoneOffset": "-09:00", "zoneAbbreviation": "AKST"}}, "15292700": {"latitude": 62.3464388, "logitude": -150.019201, "state": "AK", "name": "TALKEETNA R NR TALKEETNA AK", "timeZoneInfo": {"zoneOffset": "-09:00", "zoneAbbreviation": "AKST"}}, "15292780": {"latitude": 62.1748474, "logitude": -150.1726719, "state": "AK", "name": "SUSITNA R AT SUNSHINE AK", "timeZoneInfo": {"zoneOffset": "-09:00", "zoneAbbreviation": "AKST"}}, "15292800": {"latitude": 62.1047619, "logitude": -150.0597486, "state": "AK", "name": "MONTANA C NR MONTANA AK", "timeZoneInfo": {"zoneOffset": "-09:00", "zoneAbbreviation": "AKST"}}, "15293200": {"latitude": 61.92388889, "logitude": -150.0713889, "state": "AK", "name": "KASHWITNA R NR WILLOW AK", "timeZoneInfo": {"zoneOffset": "-09:00", "zoneAbbreviation": "AKST"}}, "15293700": {"latitude": 61.80974586, "logitude": -150.0972379, "state": "AK", "name": "L WILLOW C NR KASHWITNA AK", "timeZoneInfo": {"zoneOffset": "-09:00", "zoneAbbreviation": "AKST"}}, "15294005": {"latitude": 61.78030346, "logitude": -149.8866786, "state": "AK", "name": "WILLOW C NR WILLOW AK", "timeZoneInfo": {"zoneOffset": "-09:00", "zoneAbbreviation": "AKST"}}, "15294080": {"latitude": 62.1328333, "logitude": -150.5386667, "state": "AK", "name": "KROTO CREEK AT OILWELL ROAD NEAR TRAPPER CREEK AK", "timeZoneInfo": {"zoneOffset": "-09:00", "zoneAbbreviation": "AKST"}}, "15294100": {"latitude": 61.7675212, "logitude": -150.3391832, "state": "AK", "name": "DESHKA R NR WILLOW AK", "timeZoneInfo": {"zoneOffset": "-09:00", "zoneAbbreviation": "AKST"}}, "15294345": {"latitude": 61.6980747, "logitude": -150.6527885, "state": "AK", "name": "YENTNA R NR SUSITNA STATION AK", "timeZoneInfo": {"zoneOffset": "-09:00", "zoneAbbreviation": "AKST"}}, "15294350": {"latitude": 61.5441796, "logitude": -150.5147329, "state": "AK", "name": "SUSITNA R AT SUSITNA STATION AK", "timeZoneInfo": {"zoneOffset": "-09:00", "zoneAbbreviation": "AKST"}}, "15294500": {"latitude": 61.2116271, "logitude": -152.3593688, "state": "AK", "name": "CHAKACHATNA R NR TYONEK AK", "timeZoneInfo": {"zoneOffset": "-09:00", "zoneAbbreviation": "AKST"}}, "15294640": {"latitude": 60.3580556, "logitude": -152.818611, "state": "AK", "name": "LAKE FORK CRESCENT R NR TUXEDNI BAY AK", "timeZoneInfo": {"zoneOffset": "-09:00", "zoneAbbreviation": "AKST"}}, "15294700": {"latitude": 60.09411299, "logitude": -152.912777, "state": "AK", "name": "JOHNSON R AB LATERAL GLACIER NR TUXEDNI BAY AK", "timeZoneInfo": {"zoneOffset": "-09:00", "zoneAbbreviation": "AKST"}}, "15294900": {"latitude": 59.1545916, "logitude": -154.2612832, "state": "AK", "name": "PAINT R NR KAMISHAK AK", "timeZoneInfo": {"zoneOffset": "-09:00", "zoneAbbreviation": "AKST"}}, "15295700": {"latitude": 57.69397807, "logitude": -153.1639087, "state": "AK", "name": "TERROR R AT MOUTH NR KODIAK AK", "timeZoneInfo": {"zoneOffset": "-09:00", "zoneAbbreviation": "AKST"}}, "15297475": {"latitude": 57.81592178, "logitude": -152.6244165, "state": "AK", "name": "RED CLOUD R TR NR KODIAK AK", "timeZoneInfo": {"zoneOffset": "-09:00", "zoneAbbreviation": "AKST"}}, "15297485": {"latitude": 57.7098028, "logitude": -152.870554, "state": "AK", "name": "KIZHUYAK R NR PORT LIONS AK", "timeZoneInfo": {"zoneOffset": "-09:00", "zoneAbbreviation": "AKST"}}, "15297580": {"latitude": 56.4532127, "logitude": -158.9182398, "state": "AK", "name": "ALEC R NR CHIGNIK AK", "timeZoneInfo": {"zoneOffset": "-09:00", "zoneAbbreviation": "AKST"}}, "15297585": {"latitude": 56.3939064, "logitude": -158.937012, "state": "AK", "name": "CHIGNIK R AT BLACK LAKE OUTLET NR CHIGNIK AK", "timeZoneInfo": {"zoneOffset": "-09:00", "zoneAbbreviation": "AKST"}}, "15297610": {"latitude": 55.1769059, "logitude": -162.6895109, "state": "AK", "name": "RUSSELL C NR COLD BAY AK", "timeZoneInfo": {"zoneOffset": "-09:00", "zoneAbbreviation": "AKST"}}, "15297617": {"latitude": 51.87584326, "logitude": -176.663309, "state": "AK", "name": "SWEEPER C AT ADAK IS AK", "timeZoneInfo": {"zoneOffset": "-09:00", "zoneAbbreviation": "AKST"}}, "15297625": {"latitude": 51.93639769, "logitude": -176.6519277, "state": "AK", "name": "MOFFETT C AT ADAK IS AK", "timeZoneInfo": {"zoneOffset": "-09:00", "zoneAbbreviation": "AKST"}}, "15298040": {"latitude": 60.2036591, "logitude": -154.7044349, "state": "AK", "name": "CHULITNA R 5MI AB MOUTH NR PORT ALSWORTH AK", "timeZoneInfo": {"zoneOffset": "-09:00", "zoneAbbreviation": "AKST"}}, "15300200": {"latitude": 59.75653898, "logitude": -154.8491212, "state": "AK", "name": "ROADHOUSE C NR ILIAMNA AK", "timeZoneInfo": {"zoneOffset": "-09:00", "zoneAbbreviation": "AKST"}}, "15300250": {"latitude": 59.7859761, "logitude": -155.2552406, "state": "AK", "name": "UPPER TALARIK C NR ILIAMNA AK", "timeZoneInfo": {"zoneOffset": "-09:00", "zoneAbbreviation": "AKST"}}, "15300300": {"latitude": 59.7579499, "logitude": -153.8468866, "state": "AK", "name": "ILIAMNA R NR PEDRO BAY AK", "timeZoneInfo": {"zoneOffset": "-09:00", "zoneAbbreviation": "AKST"}}, "15300520": {"latitude": 59.337622, "logitude": -156.077443, "state": "AK", "name": "KASKANAK C NR IGIUGIG AK", "timeZoneInfo": {"zoneOffset": "-09:00", "zoneAbbreviation": "AKST"}}, "15301500": {"latitude": 60.1539944, "logitude": -158.7366923, "state": "AK", "name": "ALLEN R NR ALEKNAGIK AK", "timeZoneInfo": {"zoneOffset": "-09:00", "zoneAbbreviation": "AKST"}}, "15302000": {"latitude": 59.93483, "logitude": -158.1900062, "state": "AK", "name": "NUYAKUK R NR DILLINGHAM AK", "timeZoneInfo": {"zoneOffset": "-09:00", "zoneAbbreviation": "AKST"}}, "15302200": {"latitude": 59.7926376, "logitude": -155.5246895, "state": "AK", "name": "KOKTULI R NR ILIAMNA AK", "timeZoneInfo": {"zoneOffset": "-09:00", "zoneAbbreviation": "AKST"}}, "15302250": {"latitude": 59.8424682, "logitude": -155.7185564, "state": "AK", "name": "NF KOKTULI R NR ILIAMNA AK", "timeZoneInfo": {"zoneOffset": "-09:00", "zoneAbbreviation": "AKST"}}, "15302300": {"latitude": 59.8376227, "logitude": -156.6938693, "state": "AK", "name": "MULCHATNA R AB STUYAHOK R NR NEW STUYAHOK AK", "timeZoneInfo": {"zoneOffset": "-09:00", "zoneAbbreviation": "AKST"}}, "15302320": {"latitude": 59.80901149, "logitude": -156.6669229, "state": "AK", "name": "STUYAHOK R NR NEW STUYAHOK AK", "timeZoneInfo": {"zoneOffset": "-09:00", "zoneAbbreviation": "AKST"}}, "15302500": {"latitude": 59.3484391, "logitude": -157.4752426, "state": "AK", "name": "NUSHAGAK R AT EKWOK AK", "timeZoneInfo": {"zoneOffset": "-09:00", "zoneAbbreviation": "AKST"}}, "15302812": {"latitude": 59.415, "logitude": -157.8041667, "state": "AK", "name": "KOKWOK R 22 MI AB NUSHAGAK R NR EKWOK AK", "timeZoneInfo": {"zoneOffset": "-09:00", "zoneAbbreviation": "AKST"}}, "15303011": {"latitude": 59.20647667, "logitude": -158.6694205, "state": "AK", "name": "WOOD R TR NR ALEKNAGIK AK", "timeZoneInfo": {"zoneOffset": "-09:00", "zoneAbbreviation": "AKST"}}, "15303700": {"latitude": 62.8843697, "logitude": -155.941803, "state": "AK", "name": "TATALINA R NR TAKOTNA AK", "timeZoneInfo": {"zoneOffset": "-09:00", "zoneAbbreviation": "AKST"}}, "15303900": {"latitude": 62.0512773, "logitude": -156.2129069, "state": "AK", "name": "KUSKOKWIM R AT LISKYS CROSSING NR STONY RIVER AK", "timeZoneInfo": {"zoneOffset": "-09:00", "zoneAbbreviation": "AKST"}}, "15304000": {"latitude": 61.8687445, "logitude": -158.1137848, "state": "AK", "name": "KUSKOKWIM R AT CROOKED CREEK AK", "timeZoneInfo": {"zoneOffset": "-09:00", "zoneAbbreviation": "AKST"}}, "15304010": {"latitude": 61.8893006, "logitude": -158.156842, "state": "AK", "name": "CROOKED C AB AIRPORT RD NR CROOKED CREEK AK", "timeZoneInfo": {"zoneOffset": "-09:00", "zoneAbbreviation": "AKST"}}, "15304293": {"latitude": 60.80480307, "logitude": -161.8250755, "state": "AK", "name": "BROWNS C NR BETHEL AK", "timeZoneInfo": {"zoneOffset": "-09:00", "zoneAbbreviation": "AKST"}}, "15304400": {"latitude": 60.8057973, "logitude": -164.598393, "state": "AK", "name": "TAKIKCHAK R NR NEWTOK AK", "timeZoneInfo": {"zoneOffset": "-09:00", "zoneAbbreviation": "AKST"}}, "15310002": {"latitude": 64.0344444, "logitude": -142.5283333, "state": "AK", "name": "MOSQUITO FORK 2 MI BL KECHUMSTUK C NR CHICKEN AK", "timeZoneInfo": {"zoneOffset": "-09:00", "zoneAbbreviation": "AKST"}}, "15320100": {"latitude": 64.1180119, "logitude": -141.5558947, "state": "AK", "name": "WADE C TRIB NR CHICKEN AK", "timeZoneInfo": {"zoneOffset": "-09:00", "zoneAbbreviation": "AKST"}}, "15330000": {"latitude": 64.4668333, "logitude": -142.21625, "state": "AK", "name": "NF FORTYMILE R AB MF NR FRANKLIN AK", "timeZoneInfo": {"zoneOffset": "-09:00", "zoneAbbreviation": "AKST"}}, "15331000": {"latitude": 64.4708611, "logitude": -142.2215, "state": "AK", "name": "MF FORTYMILE R NR MOUTH NR CHICKEN AK", "timeZoneInfo": {"zoneOffset": "-09:00", "zoneAbbreviation": "AKST"}}, "15348000": {"latitude": 64.3088552, "logitude": -141.4045168, "state": "AK", "name": "FORTYMILE R NR STEELE CREEK AK", "timeZoneInfo": {"zoneOffset": "-09:00", "zoneAbbreviation": "AKST"}}, "15356000": {"latitude": 64.789168, "logitude": -141.2000892, "state": "AK", "name": "YUKON R AT EAGLE AK", "timeZoneInfo": {"zoneOffset": "-09:00", "zoneAbbreviation": "AKST"}}, "15388030": {"latitude": 65.23943139, "logitude": -141.6551518, "state": "AK", "name": "NATION R NR NATION AK", "timeZoneInfo": {"zoneOffset": "-09:00", "zoneAbbreviation": "AKST"}}, "15388060": {"latitude": 65.3952435, "logitude": -142.430455, "state": "AK", "name": "KANDIK R NR NATION AK", "timeZoneInfo": {"zoneOffset": "-09:00", "zoneAbbreviation": "AKST"}}, "15389100": {"latitude": 66.6514678, "logitude": -145.0991477, "state": "AK", "name": "PORCUPINE R 9.5MI AB MOUTH NR FORT YUKON AK", "timeZoneInfo": {"zoneOffset": "-09:00", "zoneAbbreviation": "AKST"}}, "15392000": {"latitude": 65.3921157, "logitude": -145.7149559, "state": "AK", "name": "BIRCH C AB TWELVEMILE C NR MILLER HOUSE AK", "timeZoneInfo": {"zoneOffset": "-09:00", "zoneAbbreviation": "AKST"}}, "15452100": {"latitude": 65.805163, "logitude": -146.6511339, "state": "AK", "name": "BEAVER C AB VICTORIA C NR BEAVER AK", "timeZoneInfo": {"zoneOffset": "-09:00", "zoneAbbreviation": "AKST"}}, "15452300": {"latitude": 66.2212817, "logitude": -146.7647463, "state": "AK", "name": "BEAVER C NR MICHEL LK NR BEAVER AK", "timeZoneInfo": {"zoneOffset": "-09:00", "zoneAbbreviation": "AKST"}}, "15453500": {"latitude": 65.8751013, "logitude": -149.7203487, "state": "AK", "name": "YUKON R NR STEVENS VILLAGE AK", "timeZoneInfo": {"zoneOffset": "-09:00", "zoneAbbreviation": "AKST"}}, "15457790": {"latitude": 65.574, "logitude": -148.3878556, "state": "AK", "name": "GOLDSTREAM C BL ALABAM C NR LIVENGOOD AK", "timeZoneInfo": {"zoneOffset": "-09:00", "zoneAbbreviation": "AKST"}}, "15457800": {"latitude": 65.66483428, "logitude": -149.0989254, "state": "AK", "name": "HESS C NR LIVENGOOD AK", "timeZoneInfo": {"zoneOffset": "-09:00", "zoneAbbreviation": "AKST"}}, "15476000": {"latitude": 63.3879716, "logitude": -143.748634, "state": "AK", "name": "TANANA R NR TANACROSS AK", "timeZoneInfo": {"zoneOffset": "-09:00", "zoneAbbreviation": "AKST"}}, "15477730": {"latitude": 64.4476748, "logitude": -144.8854024, "state": "AK", "name": "LIESE C NR BIG DELTA AK", "timeZoneInfo": {"zoneOffset": "-09:00", "zoneAbbreviation": "AKST"}}, "15477740": {"latitude": 64.4501744, "logitude": -144.9445717, "state": "AK", "name": "GOODPASTER R NR BIG DELTA AK", "timeZoneInfo": {"zoneOffset": "-09:00", "zoneAbbreviation": "AKST"}}, "15477761": {"latitude": 64.416565, "logitude": -144.8509555, "state": "AK", "name": "U WEST C NR BIG DELTA AK", "timeZoneInfo": {"zoneOffset": "-09:00", "zoneAbbreviation": "AKST"}}, "15477768": {"latitude": 64.3890668, "logitude": -144.7801189, "state": "AK", "name": "SONORA C AB TRIB NR BIG DELTA AK", "timeZoneInfo": {"zoneOffset": "-09:00", "zoneAbbreviation": "AKST"}}, "15477770": {"latitude": 64.37739989, "logitude": -144.8137305, "state": "AK", "name": "SONORA C NR BIG DELTA AK", "timeZoneInfo": {"zoneOffset": "-09:00", "zoneAbbreviation": "AKST"}}, "15477790": {"latitude": 64.3765652, "logitude": -144.9454017, "state": "AK", "name": "CENTRAL C NR BIG DELTA AK", "timeZoneInfo": {"zoneOffset": "-09:00", "zoneAbbreviation": "AKST"}}, "15478040": {"latitude": 63.24027778, "logitude": -145.4680556, "state": "AK", "name": "PHELAN C NR PAXSON AK", "timeZoneInfo": {"zoneOffset": "-09:00", "zoneAbbreviation": "AKST"}}, "15484000": {"latitude": 64.47152778, "logitude": -146.9280556, "state": "AK", "name": "SALCHA R NR SALCHAKET AK", "timeZoneInfo": {"zoneOffset": "-09:00", "zoneAbbreviation": "AKST"}}, "15485500": {"latitude": 64.792344, "logitude": -147.8413097, "state": "AK", "name": "TANANA R AT FAIRBANKS AK", "timeZoneInfo": {"zoneOffset": "-09:00", "zoneAbbreviation": "AKST"}}, "15493000": {"latitude": 64.9019722, "logitude": -146.3613333, "state": "AK", "name": "CHENA R NR TWO RIVERS AK", "timeZoneInfo": {"zoneOffset": "-09:00", "zoneAbbreviation": "AKST"}}, "15493400": {"latitude": 64.8595879, "logitude": -146.8057505, "state": "AK", "name": "CHENA R BL HUNTS C NR TWO RIVERS AK", "timeZoneInfo": {"zoneOffset": "-09:00", "zoneAbbreviation": "AKST"}}, "15493700": {"latitude": 64.8004119, "logitude": -147.2301929, "state": "AK", "name": "CHENA R BL MOOSE C DAM AK", "timeZoneInfo": {"zoneOffset": "-09:00", "zoneAbbreviation": "AKST"}}, "15511000": {"latitude": 64.88568988, "logitude": -147.2496477, "state": "AK", "name": "L CHENA R NR FAIRBANKS AK", "timeZoneInfo": {"zoneOffset": "-09:00", "zoneAbbreviation": "AKST"}}, "15514000": {"latitude": 64.8454026, "logitude": -147.703536, "state": "AK", "name": "CHENA R AT FAIRBANKS AK", "timeZoneInfo": {"zoneOffset": "-09:00", "zoneAbbreviation": "AKST"}}, "15515048": {"latitude": 63.97388889, "logitude": -148.761111, "state": "AK", "name": "MARGUERITE C 3.6 MI AB EMMA C NR HEALY AK", "timeZoneInfo": {"zoneOffset": "-09:00", "zoneAbbreviation": "AKST"}}, "15515060": {"latitude": 64.0084337, "logitude": -148.7281673, "state": "AK", "name": "MARGUERITE C AB EMMA C NR HEALY AK", "timeZoneInfo": {"zoneOffset": "-09:00", "zoneAbbreviation": "AKST"}}, "15515080": {"latitude": 64.01121149, "logitude": -148.727612, "state": "AK", "name": "EMMA C NR HEALY AK", "timeZoneInfo": {"zoneOffset": "-09:00", "zoneAbbreviation": "AKST"}}, "15515500": {"latitude": 64.5649444, "logitude": -149.094, "state": "AK", "name": "TANANA R AT NENANA AK", "timeZoneInfo": {"zoneOffset": "-09:00", "zoneAbbreviation": "AKST"}}, "15518020": {"latitude": 63.8523216, "logitude": -148.8428722, "state": "AK", "name": "HEALY C AT SUNTRANA AK", "timeZoneInfo": {"zoneOffset": "-09:00", "zoneAbbreviation": "AKST"}}, "15518040": {"latitude": 63.85370837, "logitude": -148.9578719, "state": "AK", "name": "NENANA R AT HEALY AK", "timeZoneInfo": {"zoneOffset": "-09:00", "zoneAbbreviation": "AKST"}}, "15518080": {"latitude": 63.90426299, "logitude": -148.9859325, "state": "AK", "name": "LIGNITE C AB MOUTH NR HEALY AK", "timeZoneInfo": {"zoneOffset": "-09:00", "zoneAbbreviation": "AKST"}}, "15519030": {"latitude": 65.5229722, "logitude": -148.5463889, "state": "AK", "name": "LIVENGOOD C AT LIVENGOOD AK", "timeZoneInfo": {"zoneOffset": "-09:00", "zoneAbbreviation": "AKST"}}, "15519100": {"latitude": 65.4648407, "logitude": -148.6311143, "state": "AK", "name": "TOLOVANA R BL ROSEBUD C NR LIVENGOOD AK", "timeZoneInfo": {"zoneOffset": "-09:00", "zoneAbbreviation": "AKST"}}, "15519150": {"latitude": 65.4662288, "logitude": -148.6691702, "state": "AK", "name": "WF TOLOVANA R NR LIVENGOOD AK", "timeZoneInfo": {"zoneOffset": "-09:00", "zoneAbbreviation": "AKST"}}, "15534800": {"latitude": 65.1409668, "logitude": -147.4580118, "state": "AK", "name": "CHATANIKA R AB POKER C NR CHATANIKA AK", "timeZoneInfo": {"zoneOffset": "-09:00", "zoneAbbreviation": "AKST"}}, "15564450": {"latitude": 64.3999506, "logitude": -155.5035327, "state": "AK", "name": "LONG C AT LONG NR RUBY AK", "timeZoneInfo": {"zoneOffset": "-09:00", "zoneAbbreviation": "AKST"}}, "15564879": {"latitude": 67.2544444, "logitude": -150.1772222, "state": "AK", "name": "SLATE C AT COLDFOOT AK", "timeZoneInfo": {"zoneOffset": "-09:00", "zoneAbbreviation": "AKST"}}, "15565400": {"latitude": 62.7887211, "logitude": -160.699352, "state": "AK", "name": "ANVIK R NR ANVIK AK", "timeZoneInfo": {"zoneOffset": "-09:00", "zoneAbbreviation": "AKST"}}, "15565447": {"latitude": 61.9336866, "logitude": -162.8829356, "state": "AK", "name": "YUKON R AT PILOT STATION AK", "timeZoneInfo": {"zoneOffset": "-09:00", "zoneAbbreviation": "AKST"}}, "15565700": {"latitude": 63.9342965, "logitude": -160.3074725, "state": "AK", "name": "UNALAKLEET R AB CHIROSKEY R NR UNALAKLEET AK", "timeZoneInfo": {"zoneOffset": "-09:00", "zoneAbbreviation": "AKST"}}, "15580095": {"latitude": 64.8919444, "logitude": -163.67, "state": "AK", "name": "NIUKLUK R AB MELSING C AT COUNCIL AK", "timeZoneInfo": {"zoneOffset": "-09:00", "zoneAbbreviation": "AKST"}}, "15583500": {"latitude": 64.6981485, "logitude": -164.1684432, "state": "AK", "name": "ETTA C NR COUNCIL AK", "timeZoneInfo": {"zoneOffset": "-09:00", "zoneAbbreviation": "AKST"}}, "15621000": {"latitude": 64.5633967, "logitude": -165.5098082, "state": "AK", "name": "SNAKE R NR NOME AK", "timeZoneInfo": {"zoneOffset": "-09:00", "zoneAbbreviation": "AKST"}}, "15625850": {"latitude": 64.80777778, "logitude": -165.4295278, "state": "AK", "name": "STEWART R 0.1 MI BL BOULDER C MTH NR NOME AK", "timeZoneInfo": {"zoneOffset": "-09:00", "zoneAbbreviation": "AKST"}}, "15625900": {"latitude": 64.7883333, "logitude": -165.6316667, "state": "AK", "name": "STEWART R 0.2 MI BL DURRANT C MTH NR NOME AK", "timeZoneInfo": {"zoneOffset": "-09:00", "zoneAbbreviation": "AKST"}}, "15635000": {"latitude": 64.9578393, "logitude": -166.2026442, "state": "AK", "name": "ELDORADO C NR TELLER AK", "timeZoneInfo": {"zoneOffset": "-09:00", "zoneAbbreviation": "AKST"}}, "15742980": {"latitude": 66.8184722, "logitude": -162.5040278, "state": "AK", "name": "SADIE C 1.3 MI AB MOUTH NR KOTZEBUE AK", "timeZoneInfo": {"zoneOffset": "-09:00", "zoneAbbreviation": "AKST"}}, "15743850": {"latitude": 66.9455603, "logitude": -156.9116193, "state": "AK", "name": "DAHL C NR KOBUK AK", "timeZoneInfo": {"zoneOffset": "-09:00", "zoneAbbreviation": "AKST"}}, "15744500": {"latitude": 66.972994, "logitude": -160.1336307, "state": "AK", "name": "KOBUK R NR KIANA AK", "timeZoneInfo": {"zoneOffset": "-09:00", "zoneAbbreviation": "AKST"}}, "15746900": {"latitude": 68.0776749, "logitude": -163.190455, "state": "AK", "name": "WULIK R AB FERRIC C NR KIVALINA AK", "timeZoneInfo": {"zoneOffset": "-09:00", "zoneAbbreviation": "AKST"}}, "15746980": {"latitude": 68.0932357, "logitude": -162.9493459, "state": "AK", "name": "IKALUKROK C AB RED DOG C NR KIVALINA AK", "timeZoneInfo": {"zoneOffset": "-09:00", "zoneAbbreviation": "AKST"}}, "15746983": {"latitude": 68.0737929, "logitude": -162.862676, "state": "AK", "name": "RED DOG MINE CLEAN WATER D NR KIVALINA AK", "timeZoneInfo": {"zoneOffset": "-09:00", "zoneAbbreviation": "AKST"}}, "15746988": {"latitude": 68.0835148, "logitude": -162.8840664, "state": "AK", "name": "NF RED DOG C NR KIVALINA AK", "timeZoneInfo": {"zoneOffset": "-09:00", "zoneAbbreviation": "AKST"}}, "15746990": {"latitude": 68.0887914, "logitude": -162.9424008, "state": "AK", "name": "RED DOG C AB MOUTH NR KIVALINA AK", "timeZoneInfo": {"zoneOffset": "-09:00", "zoneAbbreviation": "AKST"}}, "1574699020": {"latitude": 68.0851795, "logitude": -162.971567, "state": "AK", "name": "IKALUKROK C 0.6 MI BL RED DOG C NR KIVALINA AK", "timeZoneInfo": {"zoneOffset": "-09:00", "zoneAbbreviation": "AKST"}}, "15746991": {"latitude": 68.0468445, "logitude": -163.0290619, "state": "AK", "name": "IKALUKROK C BL RED DOG C NR KIVALINA AK", "timeZoneInfo": {"zoneOffset": "-09:00", "zoneAbbreviation": "AKST"}}, "15747000": {"latitude": 67.8754405, "logitude": -163.6773733, "state": "AK", "name": "WULIK R BL TUTAK C NR KIVALINA AK", "timeZoneInfo": {"zoneOffset": "-09:00", "zoneAbbreviation": "AKST"}}, "15798700": {"latitude": 71.25930339, "logitude": -156.7859722, "state": "AK", "name": "NUNAVAK C NR BARROW AK", "timeZoneInfo": {"zoneOffset": "-09:00", "zoneAbbreviation": "AKST"}}, "15803000": {"latitude": 70.4953764, "logitude": -157.395848, "state": "AK", "name": "MEADE R AT ATKASUK AK", "timeZoneInfo": {"zoneOffset": "-09:00", "zoneAbbreviation": "AKST"}}, "15820000": {"latitude": 69.76639048, "logitude": -154.6644064, "state": "AK", "name": "IKPIKPUK R BL FRY C NR ALAKTAK AK", "timeZoneInfo": {"zoneOffset": "-09:00", "zoneAbbreviation": "AKST"}}, "15860000": {"latitude": 70.270199, "logitude": -151.872308, "state": "AK", "name": "FISH C NR NUIQSUT AK", "timeZoneInfo": {"zoneOffset": "-09:00", "zoneAbbreviation": "AKST"}}, "15861000": {"latitude": 70.2201986, "logitude": -151.8378484, "state": "AK", "name": "JUDY C NR NUIQSUT AK", "timeZoneInfo": {"zoneOffset": "-09:00", "zoneAbbreviation": "AKST"}}, "15862500": {"latitude": 70.2426556, "logitude": -151.2949472, "state": "AK", "name": "UBLUTUOCH R 13.7 MI AB MOUTH NR NUIQSUT AK", "timeZoneInfo": {"zoneOffset": "-09:00", "zoneAbbreviation": "AKST"}}, "15875000": {"latitude": 69.3605, "logitude": -152.1226944, "state": "AK", "name": "COLVILLE R AT UMIAT AK", "timeZoneInfo": {"zoneOffset": "-09:00", "zoneAbbreviation": "AKST"}}, "15896000": {"latitude": 70.28138539, "logitude": -148.962786, "state": "AK", "name": "KUPARUK R NR DEADHORSE AK", "timeZoneInfo": {"zoneOffset": "-09:00", "zoneAbbreviation": "AKST"}}, "15904800": {"latitude": 68.2146132, "logitude": -149.406411, "state": "AK", "name": "ATIGUN R NR PUMP STATION 4 AK", "timeZoneInfo": {"zoneOffset": "-09:00", "zoneAbbreviation": "AKST"}}, "15905100": {"latitude": 68.4522222, "logitude": -149.3733333, "state": "AK", "name": "ATIGUN R BL GALBRAITH LK NR PUMP STATION 4 AK", "timeZoneInfo": {"zoneOffset": "-09:00", "zoneAbbreviation": "AKST"}}, "15906000": {"latitude": 68.6865738, "logitude": -149.0977902, "state": "AK", "name": "SAGAVANIRKTOK R TRIB NR PUMP STA 3 AK", "timeZoneInfo": {"zoneOffset": "-09:00", "zoneAbbreviation": "AKST"}}, "15908000": {"latitude": 69.0158333, "logitude": -148.8177778, "state": "AK", "name": "SAGAVANIRKTOK R NR PUMP STA 3 AK", "timeZoneInfo": {"zoneOffset": "-09:00", "zoneAbbreviation": "AKST"}}, "15955000": {"latitude": 69.8817052, "logitude": -146.3886988, "state": "AK", "name": "CANNING R AB STAINES R NR DEADHORSE AK", "timeZoneInfo": {"zoneOffset": "-09:00", "zoneAbbreviation": "AKST"}}, "15960000": {"latitude": 69.8650563, "logitude": -145.5955922, "state": "AK", "name": "TAMAYARIAK R NR KAKTOVIK AK", "timeZoneInfo": {"zoneOffset": "-09:00", "zoneAbbreviation": "AKST"}}, "15980000": {"latitude": 69.7036856, "logitude": -144.2010893, "state": "AK", "name": "HULAHULA R NR KAKTOVIK AK", "timeZoneInfo": {"zoneOffset": "-09:00", "zoneAbbreviation": "AKST"}}, "644255147180200": {"latitude": 64.71485417, "logitude": -147.3029618, "state": "AK", "name": "TANANA R UNNAMD SL AT MOOSE C DAM NR NORTH POLE AK", "timeZoneInfo": {"zoneOffset": "-09:00", "zoneAbbreviation": "AKST"}}, "02339495": {"latitude": 32.9015159, "logitude": -85.1963308, "state": "AL", "name": "OSELIGEE CREEK NEAR LANETT AL", "timeZoneInfo": {"zoneOffset": "-06:00", "zoneAbbreviation": "CST"}}, "02342500": {"latitude": 32.31681467, "logitude": -85.014931, "state": "AL", "name": "UCHEE CREEK NEAR FORT MITCHELL, AL.", "timeZoneInfo": {"zoneOffset": "-06:00", "zoneAbbreviation": "CST"}}, "023432415": {"latitude": 31.62138889, "logitude": -85.06, "state": "AL", "name": "CHATTAHOOCHEE R .36 MI DS WFG DAM NR FT GAINES, GA", "timeZoneInfo": {"zoneOffset": "-05:00", "zoneAbbreviation": "EST"}}, "02361000": {"latitude": 31.3429492, "logitude": -85.6104912, "state": "AL", "name": "CHOCTAWHATCHEE RIVER NEAR NEWTON, AL.", "timeZoneInfo": {"zoneOffset": "-06:00", "zoneAbbreviation": "CST"}}, "02361500": {"latitude": 31.15934229, "logitude": -85.7843789, "state": "AL", "name": "CHOCTAWHATCHEE RIVER NEAR BELLWOOD AL", "timeZoneInfo": {"zoneOffset": "-06:00", "zoneAbbreviation": "CST"}}, "02362000": {"latitude": 31.0412902, "logitude": -85.8521574, "state": "AL", "name": "CHOCTAWHATCHEE RIVER NEAR GENEVA, ALABAMA", "timeZoneInfo": {"zoneOffset": "-06:00", "zoneAbbreviation": "CST"}}, "02362240": {"latitude": 31.27239318, "logitude": -85.9582737, "state": "AL", "name": "LITTLE DOUBLE BRIDGES CREEK NR ENTERPRISE, AL.", "timeZoneInfo": {"zoneOffset": "-06:00", "zoneAbbreviation": "CST"}}, "02363000": {"latitude": 31.59488716, "logitude": -85.7829975, "state": "AL", "name": "PEA RIVER NEAR ARITON AL", "timeZoneInfo": {"zoneOffset": "-06:00", "zoneAbbreviation": "CST"}}, "02364000": {"latitude": 31.4134998, "logitude": -86.0630019, "state": "AL", "name": "PEA RIVER AT ELBA, AL.", "timeZoneInfo": {"zoneOffset": "-06:00", "zoneAbbreviation": "CST"}}, "02364500": {"latitude": 31.11267588, "logitude": -86.0993868, "state": "AL", "name": "PEA RIVER NEAR SAMSON AL", "timeZoneInfo": {"zoneOffset": "-06:00", "zoneAbbreviation": "CST"}}, "02369800": {"latitude": 31.02767985, "logitude": -86.7099567, "state": "AL", "name": "BLACKWATER RIVER NEAR BRADLEY AL", "timeZoneInfo": {"zoneOffset": "-06:00", "zoneAbbreviation": "CST"}}, "02371500": {"latitude": 31.57349458, "logitude": -86.2516226, "state": "AL", "name": "CONECUH RIVER AT BRANTLEY AL", "timeZoneInfo": {"zoneOffset": "-06:00", "zoneAbbreviation": "CST"}}, "02372250": {"latitude": 31.59627177, "logitude": -86.40551809, "state": "AL", "name": "PATSALIGA CREEK NEAR BRANTLEY AL", "timeZoneInfo": {"zoneOffset": "-06:00", "zoneAbbreviation": "CST"}}, "02372422": {"latitude": 31.3612799, "logitude": -86.5196826, "state": "AL", "name": "CONECUH RIVER BEL PT A DAM NR RIVER FALLS, AL.", "timeZoneInfo": {"zoneOffset": "-06:00", "zoneAbbreviation": "CST"}}, "02372430": {"latitude": 31.34822474, "logitude": -86.5294047, "state": "AL", "name": "CONECUH RIVER AT RIVER FALLS, ALABAMA", "timeZoneInfo": {"zoneOffset": "-06:00", "zoneAbbreviation": "CST"}}, "02373000": {"latitude": 31.4537758, "logitude": -86.7869139, "state": "AL", "name": "SEPULGA RIVER NEAR MCKENZIE AL", "timeZoneInfo": {"zoneOffset": "-06:00", "zoneAbbreviation": "CST"}}, "02374050": {"latitude": 31.12778056, "logitude": -86.7964806, "state": "AL", "name": "FOLLEY CREEK NEAR DIXIE, AL", "timeZoneInfo": {"zoneOffset": "-06:00", "zoneAbbreviation": "CST"}}, "02374250": {"latitude": 31.06712374, "logitude": -87.0616352, "state": "AL", "name": "CONECUH RIVER AT STATE HWY 41 NEAR BREWTON, AL.", "timeZoneInfo": {"zoneOffset": "-06:00", "zoneAbbreviation": "CST"}}, "02374500": {"latitude": 31.41850006, "logitude": -86.9866403, "state": "AL", "name": "MURDER CREEK NEAR EVERGREEN AL", "timeZoneInfo": {"zoneOffset": "-06:00", "zoneAbbreviation": "CST"}}, "02374700": {"latitude": 31.10101137, "logitude": -87.06885829, "state": "AL", "name": "MURDER CREEK AT STATE HWY 41 AT BREWTON, AL.", "timeZoneInfo": {"zoneOffset": "-06:00", "zoneAbbreviation": "CST"}}, "02374745": {"latitude": 31.1298991, "logitude": -87.0871928, "state": "AL", "name": "BURNT CORN CREEK AT STATE HWY 41 NEAR BREWTON, AL.", "timeZoneInfo": {"zoneOffset": "-06:00", "zoneAbbreviation": "CST"}}, "02374950": {"latitude": 31.12962115, "logitude": -87.3705353, "state": "AL", "name": "BIG ESCAMBIA CR AT SARDINE BR NR STANLEY CROSSROAD", "timeZoneInfo": {"zoneOffset": "-06:00", "zoneAbbreviation": "CST"}}, "02375000": {"latitude": 31.01073709, "logitude": -87.2627518, "state": "AL", "name": "BIG ESCAMBIA CREEK AT FLOMATON AL", "timeZoneInfo": {"zoneOffset": "-06:00", "zoneAbbreviation": "CST"}}, "02377560": {"latitude": 30.63713636, "logitude": -87.6072077, "state": "AL", "name": "STYX R NR LOXLEY, AT SMITHS SIDING, ALA", "timeZoneInfo": {"zoneOffset": "-06:00", "zoneAbbreviation": "CST"}}, "02377570": {"latitude": 30.6057484, "logitude": -87.5472057, "state": "AL", "name": "STYX RIVER NEAR ELSANOR, AL.", "timeZoneInfo": {"zoneOffset": "-06:00", "zoneAbbreviation": "CST"}}, "02377750": {"latitude": 30.51825089, "logitude": -87.4627577, "state": "AL", "name": "STYX RIVER AT SEMINOLE, ALA", "timeZoneInfo": {"zoneOffset": "-06:00", "zoneAbbreviation": "CST"}}, "02378170": {"latitude": 30.3882541, "logitude": -87.652763, "state": "AL", "name": "WOLF CREEK BELOW FOLEY, ALA", "timeZoneInfo": {"zoneOffset": "-06:00", "zoneAbbreviation": "CST"}}, "02378300": {"latitude": 30.40658669, "logitude": -87.7369323, "state": "AL", "name": "MAGNOLIA RIVER AT US 98 NEAR FOLEY, ALABAMA", "timeZoneInfo": {"zoneOffset": "-06:00", "zoneAbbreviation": "CST"}}, "02378500": {"latitude": 30.54547146, "logitude": -87.79860149, "state": "AL", "name": "FISH RIVER NEAR SILVER HILL AL", "timeZoneInfo": {"zoneOffset": "-06:00", "zoneAbbreviation": "CST"}}, "0237854520": {"latitude": 30.47466944, "logitude": -87.8026444, "state": "AL", "name": "FISH RIVER NEAR MARLOW, AL", "timeZoneInfo": {"zoneOffset": "-06:00", "zoneAbbreviation": "CST"}}, "02378780": {"latitude": 30.65206944, "logitude": -87.8896472, "state": "AL", "name": "D'OLIVE CREEK NEAR BRIDGEHEAD, AL", "timeZoneInfo": {"zoneOffset": "-06:00", "zoneAbbreviation": "CST"}}, "02378790": {"latitude": 30.6427861, "logitude": -87.8917917, "state": "AL", "name": "TIAWASEE CREEK NEAR BRIDGEHEAD, AL", "timeZoneInfo": {"zoneOffset": "-06:00", "zoneAbbreviation": "CST"}}, "02397530": {"latitude": 34.20176124, "logitude": -85.447458, "state": "AL", "name": "COOSA RIVER AT STATE LINE, AL/GA", "timeZoneInfo": {"zoneOffset": "-05:00", "zoneAbbreviation": "EST"}}, "02398300": {"latitude": 34.29036965, "logitude": -85.5091268, "state": "AL", "name": "CHATTOOGA RIVER ABOVE GAYLESVILLE AL", "timeZoneInfo": {"zoneOffset": "-06:00", "zoneAbbreviation": "CST"}}, "02399200": {"latitude": 34.2889813, "logitude": -85.6805204, "state": "AL", "name": "LITTLE RIVER NEAR BLUE POND AL", "timeZoneInfo": {"zoneOffset": "-06:00", "zoneAbbreviation": "CST"}}, "02399500": {"latitude": 34.1767623, "logitude": -85.7538552, "state": "AL", "name": "COOSA RIVER AT LEESBURG AL", "timeZoneInfo": {"zoneOffset": "-06:00", "zoneAbbreviation": "CST"}}, "02399600": {"latitude": 34.1394361, "logitude": -85.6867722, "state": "AL", "name": "COOSA RIVER AT CENTRE, AL", "timeZoneInfo": {"zoneOffset": "-06:00", "zoneAbbreviation": "CST"}}, "02400100": {"latitude": 34.06509836, "logitude": -85.6141287, "state": "AL", "name": "TERRAPIN CREEK AT ELLISVILLE AL", "timeZoneInfo": {"zoneOffset": "-06:00", "zoneAbbreviation": "CST"}}, "02400175": {"latitude": 34.08676436, "logitude": -85.789967, "state": "AL", "name": "COOSA RIVER AT ADAMS FERRY BR NR BALLPLAY, AL", "timeZoneInfo": {"zoneOffset": "-06:00", "zoneAbbreviation": "CST"}}, "02400350": {"latitude": 34.04013889, "logitude": -85.8668083, "state": "AL", "name": "COOSA RIVER AT HOKES BLUFF, AL", "timeZoneInfo": {"zoneOffset": "-06:00", "zoneAbbreviation": "CST"}}, "02400496": {"latitude": 34.01398655, "logitude": -85.9702488, "state": "AL", "name": "COOSA RIVER AT GADSDEN STEAM PLANT NR GADSDEN,ALA.", "timeZoneInfo": {"zoneOffset": "-06:00", "zoneAbbreviation": "CST"}}, "02400500": {"latitude": 34.0103752, "logitude": -85.9977494, "state": "AL", "name": "COOSA RIVER AT GADSDEN AL", "timeZoneInfo": {"zoneOffset": "-06:00", "zoneAbbreviation": "CST"}}, "02400680": {"latitude": 34.43814386, "logitude": -85.7671907, "state": "AL", "name": "BIG WILLS CREEK AT STATE HWY 35 NR FORT PAYNE, AL", "timeZoneInfo": {"zoneOffset": "-06:00", "zoneAbbreviation": "CST"}}, "02401000": {"latitude": 34.0981515, "logitude": -86.0380286, "state": "AL", "name": "BIG WILLS CREEK NEAR REECE CITY", "timeZoneInfo": {"zoneOffset": "-06:00", "zoneAbbreviation": "CST"}}, "02401330": {"latitude": 33.9431535, "logitude": -86.02608309, "state": "AL", "name": "COOSA RIVER NR SOUTHSIDE, ALA", "timeZoneInfo": {"zoneOffset": "-06:00", "zoneAbbreviation": "CST"}}, "02401390": {"latitude": 33.8398211, "logitude": -86.2627559, "state": "AL", "name": "BIG CANOE CREEK AT ASHVILLE AL", "timeZoneInfo": {"zoneOffset": "-06:00", "zoneAbbreviation": "CST"}}, "02401895": {"latitude": 33.7803769, "logitude": -85.9983035, "state": "AL", "name": "OHATCHEE CREEK AT OHATCHEE, ALA.", "timeZoneInfo": {"zoneOffset": "-06:00", "zoneAbbreviation": "CST"}}, "02403310": {"latitude": 33.60204998, "logitude": -85.7852411, "state": "AL", "name": "CHOCCOLOCCO CREEK NEAR BOILING SPRING, ALABAMA", "timeZoneInfo": {"zoneOffset": "-06:00", "zoneAbbreviation": "CST"}}, "02404400": {"latitude": 33.5484383, "logitude": -86.0969163, "state": "AL", "name": "CHOCCOLOCCO CREEK AT JACKSON SHOAL NR LINCOLN AL", "timeZoneInfo": {"zoneOffset": "-06:00", "zoneAbbreviation": "CST"}}, "02405500": {"latitude": 33.44760728, "logitude": -86.386924, "state": "AL", "name": "KELLY CREEK NEAR VINCENT AL", "timeZoneInfo": {"zoneOffset": "-06:00", "zoneAbbreviation": "CST"}}, "02406500": {"latitude": 33.35955497, "logitude": -86.2341414, "state": "AL", "name": "TALLADEGA CREEK AT ALPINE AL", "timeZoneInfo": {"zoneOffset": "-06:00", "zoneAbbreviation": "CST"}}, "02406930": {"latitude": 33.21178164, "logitude": -86.273308, "state": "AL", "name": "SHIRTEE CREEK NEAR ODENA, ALABAMA", "timeZoneInfo": {"zoneOffset": "-06:00", "zoneAbbreviation": "CST"}}, "02407000": {"latitude": 33.29177917, "logitude": -86.36386659, "state": "AL", "name": "COOSA RIVER AT CHILDERSBURG AL", "timeZoneInfo": {"zoneOffset": "-06:00", "zoneAbbreviation": "CST"}}, "02407514": {"latitude": 33.32066689, "logitude": -86.4952592, "state": "AL", "name": "YELLOWLEAF CREEK NEAR WESTOVER, ALA.", "timeZoneInfo": {"zoneOffset": "-06:00", "zoneAbbreviation": "CST"}}, "02407526": {"latitude": 33.24122519, "logitude": -86.4583132, "state": "AL", "name": "COOSA RIVER AT GASTON STEAM PLANT NR WILSONVILLE", "timeZoneInfo": {"zoneOffset": "-06:00", "zoneAbbreviation": "CST"}}, "02408150": {"latitude": 32.89027778, "logitude": -86.5791667, "state": "AL", "name": "WALNUT CREEK ABOVE CLANTON, ALA", "timeZoneInfo": {"zoneOffset": "-06:00", "zoneAbbreviation": "CST"}}, "02408540": {"latitude": 32.9167896, "logitude": -86.2702507, "state": "AL", "name": "HATCHET CREEK BELOW ROCKFORD AL", "timeZoneInfo": {"zoneOffset": "-06:00", "zoneAbbreviation": "CST"}}, "02411590": {"latitude": 32.5505472, "logitude": -86.1957944, "state": "AL", "name": "COOSA RIVER AT HWY 14 NEAR WETUMPKA, AL", "timeZoneInfo": {"zoneOffset": "-06:00", "zoneAbbreviation": "CST"}}, "02411600": {"latitude": 32.53707835, "logitude": -86.208857, "state": "AL", "name": "COOSA RIVER AT WETUMPKA AL", "timeZoneInfo": {"zoneOffset": "-06:00", "zoneAbbreviation": "CST"}}, "02412000": {"latitude": 33.622885, "logitude": -85.5132894, "state": "AL", "name": "TALLAPOOSA RIVER NEAR HEFLIN, ALA.", "timeZoneInfo": {"zoneOffset": "-06:00", "zoneAbbreviation": "CST"}}, "02413300": {"latitude": 33.43733498, "logitude": -85.399118, "state": "AL", "name": "LITTLE TALLAPOOSA RIVER NEAR NEWELL AL", "timeZoneInfo": {"zoneOffset": "-06:00", "zoneAbbreviation": "CST"}}, "02414300": {"latitude": 33.19706256, "logitude": -85.5771772, "state": "AL", "name": "TALLAPOOSA RIVER AT MALONE, ALABAMA", "timeZoneInfo": {"zoneOffset": "-06:00", "zoneAbbreviation": "CST"}}, "02414500": {"latitude": 33.11678684, "logitude": -85.5607875, "state": "AL", "name": "TALLAPOOSA RIVER AT WADLEY AL", "timeZoneInfo": {"zoneOffset": "-06:00", "zoneAbbreviation": "CST"}}, "02414715": {"latitude": 32.97734526, "logitude": -85.7396808, "state": "AL", "name": "TALLAPOOSA RIVER NR NEW SITE, AL.(HORSESHOE BEND)", "timeZoneInfo": {"zoneOffset": "-06:00", "zoneAbbreviation": "CST"}}, "02415000": {"latitude": 33.06539786, "logitude": -85.8780186, "state": "AL", "name": "HILLABEE CREEK NEAR HACKNEYVILLE AL", "timeZoneInfo": {"zoneOffset": "-06:00", "zoneAbbreviation": "CST"}}, "02418230": {"latitude": 32.62680015, "logitude": -85.5880076, "state": "AL", "name": "SOUGAHATCHEE CREEK AT CO RD 188 NR LOACHAPOKA, AL.", "timeZoneInfo": {"zoneOffset": "-06:00", "zoneAbbreviation": "CST"}}, "02418760": {"latitude": 32.5481918, "logitude": -85.4805044, "state": "AL", "name": "CHEWACLA CREEK AT CHEWACLA STATE PARK NR AUBURN", "timeZoneInfo": {"zoneOffset": "-06:00", "zoneAbbreviation": "CST"}}, "02419000": {"latitude": 32.4768045, "logitude": -85.69495359, "state": "AL", "name": "UPHAPEE CREEK NEAR TUSKEGEE AL", "timeZoneInfo": {"zoneOffset": "-06:00", "zoneAbbreviation": "CST"}}, "02419500": {"latitude": 32.44902654, "logitude": -85.897458, "state": "AL", "name": "TALLAPOOSA RIVER AT MILSTEAD AL", "timeZoneInfo": {"zoneOffset": "-06:00", "zoneAbbreviation": "CST"}}, "02419890": {"latitude": 32.43985898, "logitude": -86.1955222, "state": "AL", "name": "TALLAPOOSA RIVER NEAR MONT.-MONT. WATER WORKS", "timeZoneInfo": {"zoneOffset": "-06:00", "zoneAbbreviation": "CST"}}, "02419988": {"latitude": 32.3922361, "logitude": -86.3154056, "state": "AL", "name": "ALABAMA RIVER AT MONTGOMERY AL", "timeZoneInfo": {"zoneOffset": "-06:00", "zoneAbbreviation": "CST"}}, "02420000": {"latitude": 32.41152597, "logitude": -86.40830579, "state": "AL", "name": "ALABAMA RIVER NEAR MONTGOMERY, AL.", "timeZoneInfo": {"zoneOffset": "-06:00", "zoneAbbreviation": "CST"}}, "02421000": {"latitude": 32.30736239, "logitude": -86.2994126, "state": "AL", "name": "CATOMA CREEK NEAR MONTGOMERY AL", "timeZoneInfo": {"zoneOffset": "-06:00", "zoneAbbreviation": "CST"}}, "02421350": {"latitude": 32.32513829, "logitude": -86.7847045, "state": "AL", "name": "ALABAMA RIVER AT ROBERT F HENRY LOCK AND DAM", "timeZoneInfo": {"zoneOffset": "-06:00", "zoneAbbreviation": "CST"}}, "02421351": {"latitude": 32.32236057, "logitude": -86.7838712, "state": "AL", "name": "ALABAMA RIVER BL ROBERT F HENRY L&D NEAR BENTON,AL", "timeZoneInfo": {"zoneOffset": "-06:00", "zoneAbbreviation": "CST"}}, "02422500": {"latitude": 32.5829103, "logitude": -86.9035991, "state": "AL", "name": "MULBERRY CREEK AT JONES AL", "timeZoneInfo": {"zoneOffset": "-06:00", "zoneAbbreviation": "CST"}}, "02423000": {"latitude": 32.40569225, "logitude": -87.0186007, "state": "AL", "name": "ALABAMA RIVER AT SELMA AL", "timeZoneInfo": {"zoneOffset": "-06:00", "zoneAbbreviation": "CST"}}, "02423110": {"latitude": 33.66565755, "logitude": -86.592209, "state": "AL", "name": "CAHABA RIVER NEAR TRUSSVILLE, ALA", "timeZoneInfo": {"zoneOffset": "-06:00", "zoneAbbreviation": "CST"}}, "02423130": {"latitude": 33.62232504, "logitude": -86.599431, "state": "AL", "name": "CAHABA RIVER AT TRUSSVILLE, AL.", "timeZoneInfo": {"zoneOffset": "-06:00", "zoneAbbreviation": "CST"}}, "02423160": {"latitude": 33.60371416, "logitude": -86.5491517, "state": "AL", "name": "CAHABA RIVER NEAR WHITES CHAPEL AL", "timeZoneInfo": {"zoneOffset": "-06:00", "zoneAbbreviation": "CST"}}, "02423380": {"latitude": 33.4817724, "logitude": -86.7127653, "state": "AL", "name": "CAHABA RIVER NEAR MOUNTAIN BROOK AL", "timeZoneInfo": {"zoneOffset": "-06:00", "zoneAbbreviation": "CST"}}, "02423397": {"latitude": 33.53454886, "logitude": -86.5624847, "state": "AL", "name": "LITTLE CAHABA RIVER BELOW LEEDS, AL.", "timeZoneInfo": {"zoneOffset": "-06:00", "zoneAbbreviation": "CST"}}, "02423400": {"latitude": 33.4998273, "logitude": -86.6141521, "state": "AL", "name": "LITTLE CAHABA RIVER NR JEFFERSON PARK, AL.", "timeZoneInfo": {"zoneOffset": "-06:00", "zoneAbbreviation": "CST"}}, "02423414": {"latitude": 33.43982948, "logitude": -86.6988758, "state": "AL", "name": "LITTLE CAHABA RIVER AT CAH BEA RD NR CAHABA HTS AL", "timeZoneInfo": {"zoneOffset": "-06:00", "zoneAbbreviation": "CST"}}, "02423425": {"latitude": 33.4156637, "logitude": -86.7397099, "state": "AL", "name": "CAHABA RIVER NEAR CAHABA HEIGHTS AL", "timeZoneInfo": {"zoneOffset": "-06:00", "zoneAbbreviation": "CST"}}, "02423496": {"latitude": 33.3692767, "logitude": -86.7841551, "state": "AL", "name": "CAHABA RIVER NEAR HOOVER, AL", "timeZoneInfo": {"zoneOffset": "-06:00", "zoneAbbreviation": "CST"}}, "02423500": {"latitude": 33.36344373, "logitude": -86.8130446, "state": "AL", "name": "CAHABA RIVER NEAR ACTON AL", "timeZoneInfo": {"zoneOffset": "-06:00", "zoneAbbreviation": "CST"}}, "0242354650": {"latitude": 33.3449441, "logitude": -86.7594183, "state": "AL", "name": "CABAHA VALLEY CR AT INDIAN TRAIL RD NR INDIAN SPRS", "timeZoneInfo": {"zoneOffset": "-06:00", "zoneAbbreviation": "CST"}}, "0242354750": {"latitude": 33.31344546, "logitude": -86.8063775, "state": "AL", "name": "CAHABA VALLEY CREEK AT CROSS CR RD AT PELHAM, AL.", "timeZoneInfo": {"zoneOffset": "-06:00", "zoneAbbreviation": "CST"}}, "02423555": {"latitude": 33.28455786, "logitude": -86.8824901, "state": "AL", "name": "CAHABA RIVER NEAR HELENA AL", "timeZoneInfo": {"zoneOffset": "-06:00", "zoneAbbreviation": "CST"}}, "02423571": {"latitude": 33.52093809, "logitude": -86.7169325, "state": "AL", "name": "SHADES CREEK AT ELDER ST NEAR SPRINGDALE AL", "timeZoneInfo": {"zoneOffset": "-06:00", "zoneAbbreviation": "CST"}}, "02423586": {"latitude": 33.4487185, "logitude": -86.8136007, "state": "AL", "name": "SHADES CREEK NR HOMEWOOD, ALA", "timeZoneInfo": {"zoneOffset": "-06:00", "zoneAbbreviation": "CST"}}, "02423630": {"latitude": 33.3262234, "logitude": -86.9497141, "state": "AL", "name": "SHADES CREEK NEAR GREENWOOD AL", "timeZoneInfo": {"zoneOffset": "-06:00", "zoneAbbreviation": "CST"}}, "02423647": {"latitude": 33.09817509, "logitude": -87.054716, "state": "AL", "name": "CAHABA RIVER NEAR WEST BLOCTON AL", "timeZoneInfo": {"zoneOffset": "-06:00", "zoneAbbreviation": "CST"}}, "02424000": {"latitude": 32.9451238, "logitude": -87.1391623, "state": "AL", "name": "CAHABA RIVER AT CENTREVILLE AL", "timeZoneInfo": {"zoneOffset": "-06:00", "zoneAbbreviation": "CST"}}, "02424590": {"latitude": 32.5293002, "logitude": -87.198884, "state": "AL", "name": "CAHABA RIVER NEAR SUTTLE, AL.", "timeZoneInfo": {"zoneOffset": "-06:00", "zoneAbbreviation": "CST"}}, "02425000": {"latitude": 32.44402456, "logitude": -87.1802715, "state": "AL", "name": "CAHABA RIVER NEAR MARION JUNCTION AL", "timeZoneInfo": {"zoneOffset": "-06:00", "zoneAbbreviation": "CST"}}, "02427250": {"latitude": 31.99625809, "logitude": -87.0683187, "state": "AL", "name": "PINE BARREN CREEK NEAR SNOW HILL, AL.", "timeZoneInfo": {"zoneOffset": "-06:00", "zoneAbbreviation": "CST"}}, "02427506": {"latitude": 32.10014534, "logitude": -87.39777319, "state": "AL", "name": "ALABAMA RIVER BELOW MILLERS FERRY L&D NR CAMDEN AL", "timeZoneInfo": {"zoneOffset": "-06:00", "zoneAbbreviation": "CST"}}, "02428400": {"latitude": 31.61515849, "logitude": -87.550548, "state": "AL", "name": "ALABAMA RIVER AT CLAIBORNE L&D NEAR MONROEVILLE", "timeZoneInfo": {"zoneOffset": "-06:00", "zoneAbbreviation": "CST"}}, "02428401": {"latitude": 31.61349189, "logitude": -87.550548, "state": "AL", "name": "ALABAMA RIVER BEL CLAIB. L&D NR MONROEVILLE, AL.", "timeZoneInfo": {"zoneOffset": "-06:00", "zoneAbbreviation": "CST"}}, "02438000": {"latitude": 34.10621294, "logitude": -87.9894765, "state": "AL", "name": "BUTTAHATCHEE RIVER BELOW HAMILTON AL", "timeZoneInfo": {"zoneOffset": "-06:00", "zoneAbbreviation": "CST"}}, "02444160": {"latitude": 33.21067874, "logitude": -88.2886454, "state": "AL", "name": "TOMBIGBEE RIVER AT BEVILL L&D NR PICKENSVILLE, AL", "timeZoneInfo": {"zoneOffset": "-06:00", "zoneAbbreviation": "CST"}}, "02444161": {"latitude": 33.21040097, "logitude": -88.2886454, "state": "AL", "name": "TOMBIGBEE RIVER BEL BEVIL L&D NR PICKENSVILLE, AL.", "timeZoneInfo": {"zoneOffset": "-06:00", "zoneAbbreviation": "CST"}}, "02446500": {"latitude": 33.25706249, "logitude": -87.7764022, "state": "AL", "name": "SIPSEY RIVER NR ELROD, AL", "timeZoneInfo": {"zoneOffset": "-06:00", "zoneAbbreviation": "CST"}}, "02447025": {"latitude": 32.8481856, "logitude": -88.1561363, "state": "AL", "name": "TOMBIGBEE R AT HEFLIN L&D NR GAINESVILLE ALA.", "timeZoneInfo": {"zoneOffset": "-06:00", "zoneAbbreviation": "CST"}}, "02447026": {"latitude": 32.85235218, "logitude": -88.1541918, "state": "AL", "name": "TOMBIGBEE R BLW HEFLIN L&D NR GAINESVILLE, ALA", "timeZoneInfo": {"zoneOffset": "-06:00", "zoneAbbreviation": "CST"}}, "02448500": {"latitude": 32.9326287, "logitude": -88.2978103, "state": "AL", "name": "NOXUBEE RIVER NR GEIGER, AL", "timeZoneInfo": {"zoneOffset": "-06:00", "zoneAbbreviation": "CST"}}, "02448900": {"latitude": 32.80707585, "logitude": -88.3119761, "state": "AL", "name": "BODKA CREEK NEAR GEIGER, AL.", "timeZoneInfo": {"zoneOffset": "-06:00", "zoneAbbreviation": "CST"}}, "02449838": {"latitude": 34.1725, "logitude": -86.69388889, "state": "AL", "name": "DUCK RIVER ABOVE HWY 278 NEAR BERLIN, ALA.", "timeZoneInfo": {"zoneOffset": "-06:00", "zoneAbbreviation": "CST"}}, "02449882": {"latitude": 34.0798198, "logitude": -86.60777, "state": "AL", "name": "BLUE SPRINGS CREEK NEAR BLOUNTSVILLE, AL.", "timeZoneInfo": {"zoneOffset": "-06:00", "zoneAbbreviation": "CST"}}, "02450000": {"latitude": 34.01204356, "logitude": -86.73666329, "state": "AL", "name": "MULBERRY FORK NEAR GARDEN CITY, AL.", "timeZoneInfo": {"zoneOffset": "-06:00", "zoneAbbreviation": "CST"}}, "02450180": {"latitude": 33.87204689, "logitude": -86.9222211, "state": "AL", "name": "MULBERRY FORK NEAR ARKADELPHIA, AL.", "timeZoneInfo": {"zoneOffset": "-06:00", "zoneAbbreviation": "CST"}}, "02450250": {"latitude": 34.28537757, "logitude": -87.3989084, "state": "AL", "name": "SIPSEY FORK NEAR GRAYSON AL", "timeZoneInfo": {"zoneOffset": "-06:00", "zoneAbbreviation": "CST"}}, "02450825": {"latitude": 34.08121506, "logitude": -87.422793, "state": "AL", "name": "CLEAR C AT NEW HOPE CHURCH NR POPLAR SPRINGS, AL.", "timeZoneInfo": {"zoneOffset": "-06:00", "zoneAbbreviation": "CST"}}, "02453000": {"latitude": 33.90843985, "logitude": -87.2569514, "state": "AL", "name": "BLACKWATER CREEK NEAR MANCHESTER AL", "timeZoneInfo": {"zoneOffset": "-06:00", "zoneAbbreviation": "CST"}}, "02453500": {"latitude": 33.75760677, "logitude": -87.1702791, "state": "AL", "name": "MULBERRY FORK AT CORDOVA AL", "timeZoneInfo": {"zoneOffset": "-06:00", "zoneAbbreviation": "CST"}}, "02454055": {"latitude": 33.7417756, "logitude": -87.3269483, "state": "AL", "name": "LOST CREEK ABOVE PARRISH, AL.", "timeZoneInfo": {"zoneOffset": "-06:00", "zoneAbbreviation": "CST"}}, "02455000": {"latitude": 34.02454235, "logitude": -86.5741573, "state": "AL", "name": "LOCUST FORK NEAR CLEVELAND, AL.", "timeZoneInfo": {"zoneOffset": "-06:00", "zoneAbbreviation": "CST"}}, "02455185": {"latitude": 33.8606544, "logitude": -86.4458178, "state": "AL", "name": "BLACKBURN FORK LITTLE WARRIOR R NR HOLLY SPRINGS", "timeZoneInfo": {"zoneOffset": "-06:00", "zoneAbbreviation": "CST"}}, "02455980": {"latitude": 33.71121273, "logitude": -86.6961013, "state": "AL", "name": "TURKEY CREEK AT SEWAGE PLANT NEAR PINSON AL", "timeZoneInfo": {"zoneOffset": "-06:00", "zoneAbbreviation": "CST"}}, "02456000": {"latitude": 33.74037995, "logitude": -86.8124936, "state": "AL", "name": "TURKEY CREEK AT MORRIS AL", "timeZoneInfo": {"zoneOffset": "-06:00", "zoneAbbreviation": "CST"}}, "02456500": {"latitude": 33.7098268, "logitude": -86.9833305, "state": "AL", "name": "LOCUST FORK AT SAYRE, AL.", "timeZoneInfo": {"zoneOffset": "-06:00", "zoneAbbreviation": "CST"}}, "02457000": {"latitude": 33.60149249, "logitude": -86.7555457, "state": "AL", "name": "FIVEMILE CREEK AT KETONA AL", "timeZoneInfo": {"zoneOffset": "-06:00", "zoneAbbreviation": "CST"}}, "02457595": {"latitude": 33.5970492, "logitude": -86.8680483, "state": "AL", "name": "FIVEMILE CREEK NEAR REPUBLIC, AL", "timeZoneInfo": {"zoneOffset": "-06:00", "zoneAbbreviation": "CST"}}, "02457704": {"latitude": 33.66343834, "logitude": -86.9736073, "state": "AL", "name": "FIVE MILE CREEK NR SAYRE, ALA", "timeZoneInfo": {"zoneOffset": "-06:00", "zoneAbbreviation": "CST"}}, "02458148": {"latitude": 33.5770483, "logitude": -86.7188778, "state": "AL", "name": "VILLAGE CREEK AT 86TH ST NORTH AT ROEBUCK, AL.", "timeZoneInfo": {"zoneOffset": "-06:00", "zoneAbbreviation": "CST"}}, "02458190": {"latitude": 33.54843779, "logitude": -86.7613783, "state": "AL", "name": "TRIB TO VILLAGE CREEK AT 50th ST IN BIRMINGHAM", "timeZoneInfo": {"zoneOffset": "-06:00", "zoneAbbreviation": "CST"}}, "02458300": {"latitude": 33.54260504, "logitude": -86.8174907, "state": "AL", "name": "VILLAGE CREEK AT 24TH ST. AT BIRMINGHAM, AL", "timeZoneInfo": {"zoneOffset": "-06:00", "zoneAbbreviation": "CST"}}, "02458450": {"latitude": 33.5176059, "logitude": -86.8791584, "state": "AL", "name": "VILLAGE CREEK AT AVENUE W AT ENSLEY, AL", "timeZoneInfo": {"zoneOffset": "-06:00", "zoneAbbreviation": "CST"}}, "02458502": {"latitude": 33.5239948, "logitude": -86.8911032, "state": "AL", "name": "VILLAGE CREEK NEAR PRATT CITY, ALABAMA", "timeZoneInfo": {"zoneOffset": "-06:00", "zoneAbbreviation": "CST"}}, "02458600": {"latitude": 33.5481615, "logitude": -86.9258266, "state": "AL", "name": "VILLAGE CREEK NEAR DOCENA, ALABAMA", "timeZoneInfo": {"zoneOffset": "-06:00", "zoneAbbreviation": "CST"}}, "02460500": {"latitude": 33.6056616, "logitude": -87.0069405, "state": "AL", "name": "VILLAGE CREEK NEAR ADAMSVILLE, AL.", "timeZoneInfo": {"zoneOffset": "-06:00", "zoneAbbreviation": "CST"}}, "02461130": {"latitude": 33.5057722, "logitude": -86.8364556, "state": "AL", "name": "VALLEY CREEK AT CENTER ST AT BIRMINGHAM, AL", "timeZoneInfo": {"zoneOffset": "-06:00", "zoneAbbreviation": "CST"}}, "02461192": {"latitude": 33.4926111, "logitude": -86.8721722, "state": "AL", "name": "VALLEY CREEK AT AVE W NEAR ENSLEY, AL", "timeZoneInfo": {"zoneOffset": "-06:00", "zoneAbbreviation": "CST"}}, "02461405": {"latitude": 33.4256647, "logitude": -86.9527705, "state": "AL", "name": "VALLEY CREEK BELOW BRIGHTON, ALA", "timeZoneInfo": {"zoneOffset": "-06:00", "zoneAbbreviation": "CST"}}, "02461500": {"latitude": 33.4192762, "logitude": -86.9827711, "state": "AL", "name": "VALLEY CREEK NEAR BESSEMER, AL", "timeZoneInfo": {"zoneOffset": "-06:00", "zoneAbbreviation": "CST"}}, "02461630": {"latitude": 33.3995546, "logitude": -86.9836043, "state": "AL", "name": "HALLS CREEK AT BESSEMER, AL.", "timeZoneInfo": {"zoneOffset": "-06:00", "zoneAbbreviation": "CST"}}, "02461640": {"latitude": 33.39983244, "logitude": -86.9933268, "state": "AL", "name": "VALLEY CREEK BELOW BESSEMER, AL.", "timeZoneInfo": {"zoneOffset": "-06:00", "zoneAbbreviation": "CST"}}, "02462000": {"latitude": 33.44733226, "logitude": -87.1222186, "state": "AL", "name": "VALLEY CREEK NEAR OAK GROVE AL", "timeZoneInfo": {"zoneOffset": "-06:00", "zoneAbbreviation": "CST"}}, "02462500": {"latitude": 33.4584457, "logitude": -87.3541677, "state": "AL", "name": "BLACK WARRIOR R AT BANKHEAD L&D NEAR BESSEMER AL", "timeZoneInfo": {"zoneOffset": "-06:00", "zoneAbbreviation": "CST"}}, "02462501": {"latitude": 33.45705687, "logitude": -87.355001, "state": "AL", "name": "BLACK WARRIOR R BL BANKHEAD L&D NEAR BESSEMER AL", "timeZoneInfo": {"zoneOffset": "-06:00", "zoneAbbreviation": "CST"}}, "02462951": {"latitude": 33.25317258, "logitude": -87.4491703, "state": "AL", "name": "BLACK WARRIOR RIVER AT HOLT L&D NEAR HOLT AL.", "timeZoneInfo": {"zoneOffset": "-06:00", "zoneAbbreviation": "CST"}}, "02462952": {"latitude": 33.2528948, "logitude": -87.4513926, "state": "AL", "name": "BLACK WARRIOR RIVER BELOW HOLT L&D NEAR HOLT AL", "timeZoneInfo": {"zoneOffset": "-06:00", "zoneAbbreviation": "CST"}}, "02464000": {"latitude": 33.47928058, "logitude": -87.5972297, "state": "AL", "name": "NORTH RIVER NEAR SAMANTHA AL", "timeZoneInfo": {"zoneOffset": "-06:00", "zoneAbbreviation": "CST"}}, "02465000": {"latitude": 33.20928528, "logitude": -87.5900074, "state": "AL", "name": "BLACK WARRIOR RIVER AT NORTHPORT AL", "timeZoneInfo": {"zoneOffset": "-06:00", "zoneAbbreviation": "CST"}}, "02465005": {"latitude": 33.20789644, "logitude": -87.5933408, "state": "AL", "name": "BLACK WARRIOR R BL OLIVER L&D NEAR TUSCALOOSA, AL.", "timeZoneInfo": {"zoneOffset": "-06:00", "zoneAbbreviation": "CST"}}, "02465080": {"latitude": 33.24789545, "logitude": -87.6069525, "state": "AL", "name": "MILL CREEK AT CLOVERDALE ROAD NEAR NORTHPORT, AL.", "timeZoneInfo": {"zoneOffset": "-06:00", "zoneAbbreviation": "CST"}}, "02465205": {"latitude": 33.22622959, "logitude": -87.6975106, "state": "AL", "name": "JAY CREEK NEAR COKER, ALABAMA", "timeZoneInfo": {"zoneOffset": "-06:00", "zoneAbbreviation": "CST"}}, "02465292": {"latitude": 33.17484164, "logitude": -87.5647288, "state": "AL", "name": "CRIBBS MILL CREEK AT WW PLANT AT TUSCALOOSA, AL.", "timeZoneInfo": {"zoneOffset": "-06:00", "zoneAbbreviation": "CST"}}, "02465493": {"latitude": 32.99734636, "logitude": -87.6222295, "state": "AL", "name": "ELLIOTTS CREEK AT MOUNDVILLE AL", "timeZoneInfo": {"zoneOffset": "-06:00", "zoneAbbreviation": "CST"}}, "02466030": {"latitude": 32.77790835, "logitude": -87.8405687, "state": "AL", "name": "BLACK WARRIOR RIVER AT SELDEN L & D NEAR EUTAW, AL", "timeZoneInfo": {"zoneOffset": "-06:00", "zoneAbbreviation": "CST"}}, "02466031": {"latitude": 32.7773528, "logitude": -87.841402, "state": "AL", "name": "BLACK WARRIOR RIVER BELOW SELDEN DAM NR EUTAW, AL", "timeZoneInfo": {"zoneOffset": "-06:00", "zoneAbbreviation": "CST"}}, "02467000": {"latitude": 32.51958077, "logitude": -87.8783476, "state": "AL", "name": "TOMBIGBEE R AT DEMOPOLIS L&D NEAR COATOPA, AL.", "timeZoneInfo": {"zoneOffset": "-06:00", "zoneAbbreviation": "CST"}}, "02467001": {"latitude": 32.52096964, "logitude": -87.8800143, "state": "AL", "name": "TOMBIGBEE RIVER BL DEMOPOLIS L&D NEAR COATOPA AL", "timeZoneInfo": {"zoneOffset": "-06:00", "zoneAbbreviation": "CST"}}, "02467500": {"latitude": 32.57374714, "logitude": -88.1933589, "state": "AL", "name": "SUCARNOOCHEE RIVER AT LIVINGSTON AL", "timeZoneInfo": {"zoneOffset": "-06:00", "zoneAbbreviation": "CST"}}, "02469525": {"latitude": 32.13014697, "logitude": -88.0411267, "state": "AL", "name": "TOMBIGBEE RIVER NEAR NANAFALIA, AL.", "timeZoneInfo": {"zoneOffset": "-06:00", "zoneAbbreviation": "CST"}}, "02469761": {"latitude": 31.75849066, "logitude": -88.1291763, "state": "AL", "name": "TOMBIGBEE R AT COFFEEVILLE L&D NR COFFEEVILLE, AL.", "timeZoneInfo": {"zoneOffset": "-06:00", "zoneAbbreviation": "CST"}}, "02469762": {"latitude": 31.7571018, "logitude": -88.1250095, "state": "AL", "name": "TOMBIGBEE R BL COFFEEVILLE L&D NEAR COFFEEVILLE", "timeZoneInfo": {"zoneOffset": "-06:00", "zoneAbbreviation": "CST"}}, "02469800": {"latitude": 31.7443247, "logitude": -88.0225066, "state": "AL", "name": "SATILPA CREEK NEAR COFFEEVILLE AL", "timeZoneInfo": {"zoneOffset": "-06:00", "zoneAbbreviation": "CST"}}, "02470050": {"latitude": 31.48599734, "logitude": -87.9088882, "state": "AL", "name": "TOMBIGBEE RIVER AT STEAMPLANT NR LEROY, AL", "timeZoneInfo": {"zoneOffset": "-06:00", "zoneAbbreviation": "CST"}}, "02470072": {"latitude": 31.86404249, "logitude": -87.7472247, "state": "AL", "name": "BASSETT CREEK AT US HIGHWAY 43 NR THOMASVILLE, AL.", "timeZoneInfo": {"zoneOffset": "-06:00", "zoneAbbreviation": "CST"}}, "02471001": {"latitude": 30.80296466, "logitude": -88.1433355, "state": "AL", "name": "CHICKASAW CREEK NEAR KUSHLA AL", "timeZoneInfo": {"zoneOffset": "-06:00", "zoneAbbreviation": "CST"}}, "0247100550": {"latitude": 30.73491097, "logitude": -88.1608359, "state": "AL", "name": "EIGHTMILE CREEK AT MOBILE, AL.", "timeZoneInfo": {"zoneOffset": "-06:00", "zoneAbbreviation": "CST"}}, "02471013": {"latitude": 30.70630067, "logitude": -88.1511131, "state": "AL", "name": "THREEMILE CR AT ZEIGLER BLVD AT SPRING HILL, ALA.", "timeZoneInfo": {"zoneOffset": "-06:00", "zoneAbbreviation": "CST"}}, "02471078": {"latitude": 30.50075106, "logitude": -88.1813906, "state": "AL", "name": "FOWL RIVER AT HALF-MILE RD NEAR LAURENDINE, AL.", "timeZoneInfo": {"zoneOffset": "-06:00", "zoneAbbreviation": "CST"}}, "02479431": {"latitude": 31.16101118, "logitude": -88.3619574, "state": "AL", "name": "POND CREEK NEAR DEER PARK AL", "timeZoneInfo": {"zoneOffset": "-06:00", "zoneAbbreviation": "CST"}}, "02479945": {"latitude": 30.85601968, "logitude": -88.3338988, "state": "AL", "name": "BIG CREEK AT COUNTY RD 63 NEAR WILMER, AL.", "timeZoneInfo": {"zoneOffset": "-06:00", "zoneAbbreviation": "CST"}}, "02479980": {"latitude": 30.78018805, "logitude": -88.3188979, "state": "AL", "name": "CROOKED CREEK NEAR FAIRVIEW, AL.", "timeZoneInfo": {"zoneOffset": "-06:00", "zoneAbbreviation": "CST"}}, "02480002": {"latitude": 30.7260225, "logitude": -88.2763955, "state": "AL", "name": "HAMILTON CREEK AT SNOW ROAD NEAR SEMMES, AL.", "timeZoneInfo": {"zoneOffset": "-06:00", "zoneAbbreviation": "CST"}}, "03572110": {"latitude": 34.93424968, "logitude": -85.9174783, "state": "AL", "name": "CROW CREEK AT BASS", "timeZoneInfo": {"zoneOffset": "-06:00", "zoneAbbreviation": "CST"}}, "03572690": {"latitude": 34.4986981, "logitude": -85.9296966, "state": "AL", "name": "SOUTH SAUTY CREEK NEAR RAINSVILLE, ALA", "timeZoneInfo": {"zoneOffset": "-06:00", "zoneAbbreviation": "CST"}}, "03572900": {"latitude": 34.3784235, "logitude": -85.9902524, "state": "AL", "name": "TOWN CREEK NEAR GERALDINE AL", "timeZoneInfo": {"zoneOffset": "-06:00", "zoneAbbreviation": "CST"}}, "03573182": {"latitude": 34.29842588, "logitude": -86.116643, "state": "AL", "name": "SCARHAM CREEK NEAR MCVILLE, ALABAMA", "timeZoneInfo": {"zoneOffset": "-06:00", "zoneAbbreviation": "CST"}}, "03574100": {"latitude": 34.91, "logitude": -86.1683333, "state": "AL", "name": "ESTILL FORK AT ESTILLFORK AL", "timeZoneInfo": {"zoneOffset": "-06:00", "zoneAbbreviation": "CST"}}, "03574500": {"latitude": 34.6242547, "logitude": -86.3063737, "state": "AL", "name": "PAINT ROCK RIVER NEAR WOODVILLE AL", "timeZoneInfo": {"zoneOffset": "-06:00", "zoneAbbreviation": "CST"}}, "03574768": {"latitude": 34.88064458, "logitude": -86.48054629, "state": "AL", "name": "FLINT RIVER AT OSCAR PATTERSON RD, AL", "timeZoneInfo": {"zoneOffset": "-06:00", "zoneAbbreviation": "CST"}}, "0357479650": {"latitude": 34.96092128, "logitude": -86.4636024, "state": "AL", "name": "HESTER CREEK AT BUDDY WILLIAMSON RD NR PLEVNA, AL", "timeZoneInfo": {"zoneOffset": "-06:00", "zoneAbbreviation": "CST"}}, "03575000": {"latitude": 34.82286756, "logitude": -86.4830456, "state": "AL", "name": "FLINT RIVER NEAR CHASE AL", "timeZoneInfo": {"zoneOffset": "-06:00", "zoneAbbreviation": "CST"}}, "03575100": {"latitude": 34.7492568, "logitude": -86.4466551, "state": "AL", "name": "FLINT RIVER AT BROWNSBORO, AL.", "timeZoneInfo": {"zoneOffset": "-06:00", "zoneAbbreviation": "CST"}}, "0357526200": {"latitude": 34.70481325, "logitude": -86.512212, "state": "AL", "name": "BIG COVE CREEK AT DUG HILL ROAD NR HUNTSVILLE, AL.", "timeZoneInfo": {"zoneOffset": "-06:00", "zoneAbbreviation": "CST"}}, "03575272": {"latitude": 34.68203467, "logitude": -86.44832149, "state": "AL", "name": "PEEVEY CREEK NEAR GURLEY, ALA", "timeZoneInfo": {"zoneOffset": "-06:00", "zoneAbbreviation": "CST"}}, "0357568650": {"latitude": 34.6981466, "logitude": -86.5505467, "state": "AL", "name": "ALDRIDGE CREEK AT TONEY DRIVE AT HUNTSVILLE, AL.", "timeZoneInfo": {"zoneOffset": "-06:00", "zoneAbbreviation": "CST"}}, "0357568980": {"latitude": 34.6642578, "logitude": -86.5541579, "state": "AL", "name": "ALDRIDGE C AT SHERWOOD DR NR HUNTSVILLE, ALA", "timeZoneInfo": {"zoneOffset": "-06:00", "zoneAbbreviation": "CST"}}, "03575700": {"latitude": 34.6239801, "logitude": -86.54110169, "state": "AL", "name": "ALDRIDGE CREEK NEAR FARLEY AL", "timeZoneInfo": {"zoneOffset": "-06:00", "zoneAbbreviation": "CST"}}, "03575830": {"latitude": 34.6973134, "logitude": -86.6999967, "state": "AL", "name": "INDIAN CREEK NEAR MADISON AL", "timeZoneInfo": {"zoneOffset": "-06:00", "zoneAbbreviation": "CST"}}, "0357586650": {"latitude": 34.722591, "logitude": -86.5749921, "state": "AL", "name": "FAGAN CREEK AT ADAMS STREET AT HUNTSVILLE, AL.", "timeZoneInfo": {"zoneOffset": "-06:00", "zoneAbbreviation": "CST"}}, "0357587090": {"latitude": 34.78842358, "logitude": -86.5986045, "state": "AL", "name": "WEST FORK PINHOOK CR AT BLUE SPRS RD AT HUNTSVILLE", "timeZoneInfo": {"zoneOffset": "-06:00", "zoneAbbreviation": "CST"}}, "0357587140": {"latitude": 34.79286797, "logitude": -86.5891598, "state": "AL", "name": "EAST FORK PINHOOK CR AT WINCHESTER RD AT HUNTSVIL", "timeZoneInfo": {"zoneOffset": "-06:00", "zoneAbbreviation": "CST"}}, "0357587400": {"latitude": 34.77147944, "logitude": -86.5922153, "state": "AL", "name": "PINHOOK C AT MASTIN LAKE RD AT HUNTSVILLE, ALA", "timeZoneInfo": {"zoneOffset": "-06:00", "zoneAbbreviation": "CST"}}, "0357587728": {"latitude": 34.74564649, "logitude": -86.5741588, "state": "AL", "name": "DALLAS BRANCH AT COLEMAN ST IN HUNTSVILLE, AL", "timeZoneInfo": {"zoneOffset": "-06:00", "zoneAbbreviation": "CST"}}, "03575890": {"latitude": 34.72759099, "logitude": -86.5933262, "state": "AL", "name": "PINHOOK CREEK AT CLINTON AVE. AT HUNTSVILLE, AL.", "timeZoneInfo": {"zoneOffset": "-06:00", "zoneAbbreviation": "CST"}}, "0357591500": {"latitude": 34.7495353, "logitude": -86.62527179, "state": "AL", "name": "BROGLAN BRANCH AT OAKWOOD AVENUE AT HUNTSVILLE, AL", "timeZoneInfo": {"zoneOffset": "-06:00", "zoneAbbreviation": "CST"}}, "03575950": {"latitude": 34.6900911, "logitude": -86.5963817, "state": "AL", "name": "HUNTSVILLE SP BR AT JOHNSON ROAD, HUNTSVILLE AL", "timeZoneInfo": {"zoneOffset": "-06:00", "zoneAbbreviation": "CST"}}, "03575980": {"latitude": 34.69259115, "logitude": -86.627494, "state": "AL", "name": "MCDONALD CREEK AT PATTON ROAD NR HUNTSVILLE AL", "timeZoneInfo": {"zoneOffset": "-06:00", "zoneAbbreviation": "CST"}}, "03576250": {"latitude": 34.751757, "logitude": -86.8233348, "state": "AL", "name": "LIMESTONE CREEK NEAR ATHENS AL", "timeZoneInfo": {"zoneOffset": "-06:00", "zoneAbbreviation": "CST"}}, "03576500": {"latitude": 34.37315189, "logitude": -86.933617, "state": "AL", "name": "FLINT CREEK NEAR FALKVILLE AL", "timeZoneInfo": {"zoneOffset": "-06:00", "zoneAbbreviation": "CST"}}, "03577000": {"latitude": 34.4764839, "logitude": -87.1416814, "state": "AL", "name": "WEST FLINT CREEK NEAR OAKVILLE AL", "timeZoneInfo": {"zoneOffset": "-06:00", "zoneAbbreviation": "CST"}}, "03577225": {"latitude": 34.7639782, "logitude": -86.9463954, "state": "AL", "name": "SWAN CREEK BELOW ATHENS, ALA", "timeZoneInfo": {"zoneOffset": "-06:00", "zoneAbbreviation": "CST"}}, "03586500": {"latitude": 34.67009046, "logitude": -87.3172429, "state": "AL", "name": "BIG NANCE CREEK AT COURTLAND AL", "timeZoneInfo": {"zoneOffset": "-06:00", "zoneAbbreviation": "CST"}}, "03589500": {"latitude": 34.78703254, "logitude": -87.6700288, "state": "AL", "name": "TENNESSEE RIVER AT FLORENCE AL", "timeZoneInfo": {"zoneOffset": "-06:00", "zoneAbbreviation": "CST"}}, "03590000": {"latitude": 34.8078655, "logitude": -87.7005847, "state": "AL", "name": "CYPRESS CREEK NEAR FLORENCE AL", "timeZoneInfo": {"zoneOffset": "-06:00", "zoneAbbreviation": "CST"}}, "03592000": {"latitude": 34.4439866, "logitude": -88.1155963, "state": "AL", "name": "BEAR CREEK NEAR RED BAY, AL.", "timeZoneInfo": {"zoneOffset": "-06:00", "zoneAbbreviation": "CST"}}, "03592500": {"latitude": 34.65592635, "logitude": -88.1225408, "state": "AL", "name": "BEAR CREEK AT BISHOP,AL.", "timeZoneInfo": {"zoneOffset": "-06:00", "zoneAbbreviation": "CST"}}}